{"version": 0.6, "generator": "Overpass API 0.7.62.8 e802775f", "osm3s": {"timestamp_osm_base": "2025-12-13T18:44:30Z", "copyright": "The data included in this document is from www.openstreetmap.org. The data is made available under ODbL."}, "elements": [{"type": "node", "id": 20962289, "lat": 47.0608503, "lon": 15.4680822}, {"type": "node", "id": 21015347, "lat": 47.0298732, "lon": 15.432385, "tags": {"addr:city": "Graz", "addr:country": "AT", "addr:housenumber": "361", "addr:postcode": "8055", "addr:street": "Triester Stra\u00dfe", "amenity": "restaurant", "cuisine": "regional", "name": "Puntigamer Brauhaus", "opening_hours": "Mo-Sa 10:00-23:00", "outdoor_seating": "backyard", "phone": "+43316 297100", "wheelchair": "no"}}, {"type": "node", "id": 26899232, "lat": 47.0756757, "lon": 15.4482614, "tags": {"addr:city": "Graz", "addr:country": "AT", "addr:housenumber": "17", "addr:postcode": "8010", "addr:street": "Zinzendorfgasse", "amenity": "pub", "check_date:opening_hours": "2025-10-28", "contact:email": "contact@propeller.co.at", "contact:fax": "+43 316 58 14 77", "contact:mobile": "+43 699 10 350 350", "contact:phone": "+43 316 22 50 53", "diet:gluten_free": "yes", "indoor_seating": "yes", "internet_access": "wlan", "level": "0", "name": "Propeller", "old_name": "Schuberthof", "opening_hours": "Mo-Su 11:00-01:00", "opening_hours:kitchen": "Mo-Su 10:00-23:00", "outdoor_seating": "garden", "payment:credit_cards": "yes", "payment:debit_cards": "yes", "smoking": "isolated", "source": "survey", "toilets:access": "customers", "toilets:wheelchair": "no", "website": "https://www.propeller.co.at/", "wheelchair": "limited", "wheelchair:description": "Durch Hintereingang ebenerdig"}}, {"type": "node", "id": 31611256, "lat": 47.0630084, "lon": 15.4580967, "tags": {"addr:city": "Graz", "addr:country": "AT", "addr:housenumber": "10", "addr:postcode": "8010", "addr:street": "Waltendorfer G\u00fcrtel", "air_conditioning": "yes", "brand": "Billa", "brand:wikidata": "Q537781", "brand:wikipedia": "en:Billa (supermarket)", "check_date:opening_hours": "2023-04-16", "contact:phone": "+43 59 915 06089", "currency:EUR": "yes", "name": "Billa", "opening_hours": "Mo-Fr 07:00-19:15; Sa 07:15-18:00", "operator": "Billa", "shop": "supermarket", "wheelchair": "yes"}}, {"type": "node", "id": 31620673, "lat": 47.0283055, "lon": 15.434203, "tags": {"addr:city": "Graz", "addr:country": "AT", "addr:housenumber": "371", "addr:postcode": "8055", "addr:street": "Triester Stra\u00dfe", "brand": "Billa Plus", "brand:wikidata": "Q115431077", "brand:wikipedia": "de:Billa", "contact:phone": "+43 316 242 515", "name": "Billa Plus", "old_name": "Merkur", "opening_hours": "Mo-Fr 07:00-19:15; Sa 07:15-18:00", "operator": "REWE", "shop": "supermarket", "start_date": "2021-04-06", "website": "https://www.billa.at", "wheelchair": "yes"}}, {"type": "node", "id": 31620704, "lat": 47.0399695, "lon": 15.4644162, "tags": {"addr:city": "Graz", "addr:country": "AT", "addr:housenumber": "3", "addr:postcode": "8041", "addr:street": "Ostbahnstra\u00dfe", "brand": "Interspar", "brand:wikidata": "Q15820339", "brand:wikipedia": "de:Interspar (\u00d6sterreich)", "check_date": "2025-05-15", "check_date:opening_hours": "2025-05-15", "level": "0", "name": "Interspar", "opening_hours": "Mo-Fr 07:40-20:00; Sa 07:40-18:00", "operator": "Spar", "organic": "limited", "payment:cash": "yes", "payment:electronic_purses": "yes", "shop": "supermarket", "wheelchair": "yes"}}, {"type": "node", "id": 31622693, "lat": 47.0468523, "lon": 15.4557529, "tags": {"addr:city": "Graz", "addr:country": "AT", "addr:housenumber": "2", "addr:postcode": "8041", "addr:street": "Liebenauer Hauptstra\u00dfe", "air_conditioning": "yes", "amenity": "restaurant", "contact:phone": "+43 316 47 40 77", "cuisine": "american", "diet:vegetarian": "yes", "indoor_seating": "yes", "name": "HEINZ burgers", "old_name": "Hooters", "opening_hours": "Mo-Su 11:00-23:00", "opening_hours:kitchen": "Mo-Su 11:00-22:00", "outdoor_seating": "yes", "smoking": "outside", "website": "https://www.heinz.st/liebenau.html"}}, {"type": "node", "id": 31622762, "lat": 47.0382671, "lon": 15.4619929, "tags": {"addr:city": "Graz", "addr:country": "AT", "addr:housenumber": "103", "addr:postcode": "8041", "addr:street": "Liebenauer Hauptstra\u00dfe", "amenity": "restaurant", "contact:phone": "+43 316 472 066", "name": "R\u00f6merstube", "source_ref": "https://www.roemerstube.at/kontakt/", "sport": "9pin"}}, {"type": "node", "id": 31622775, "lat": 47.0594344, "lon": 15.4696412, "tags": {"addr:city": "Graz", "addr:country": "AT", "addr:housenumber": "25", "addr:postcode": "8042", "addr:street": "Sankt-Peter-Hauptstra\u00dfe", "amenity": "pub", "check_date": "2025-07-15", "indoor_seating": "yes", "name": "Cuba", "opening_hours": "Mo-Th 08:00-23:00; Fr, Sa 09:00-24:00; Su,PH 09:00-22:00; Jan 01 closed; Dec 24 08:00-18:00; Dec 31 08:00-02:00+; Dec 25 closed", "outdoor_seating": "yes", "phone": "+43 316 474731", "website": "https://cuba-stpeter.at/", "wheelchair": "limited"}}, {"type": "node", "id": 31622878, "lat": 47.0502833, "lon": 15.4800526, "tags": {"addr:city": "Graz", "addr:country": "AT", "addr:housenumber": "141", "addr:postcode": "8042", "addr:street": "Sankt-Peter-Hauptstra\u00dfe", "amenity": "restaurant", "award:Gault-Millau": "1", "check_date": "2025-08-19", "contact:email": "info@sanpietro.at", "contact:email:2": "finanz@sanpiedro.at", "contact:email:job": "spfinanz@sanpietro.at", "contact:facebook": "www.facebook.com/sanbargraz", "contact:fax": "+43 316 48 15 81 81", "contact:phone": "+43 316 48 15 81", "contact:website": "http://www.sanpietro.at", "cuisine": "italian", "name": "San Pietro", "opening_hours": "Mo-Fr 11:30-22:30; Sa 17:00-22:30; Su,PH off", "opening_hours:bar": "Mo-Fr 11:30-23:00; Sa 17:00-23:00", "operator": "Angela Gastronomie GmbH", "source": "Gastro-Guide 2014//2015"}}, {"type": "node", "id": 31625408, "lat": 47.0678349, "lon": 15.4605827, "tags": {"addr:city": "Graz", "addr:country": "AT", "addr:housenumber": "38", "addr:postcode": "8010", "addr:street": "Krenngasse", "amenity": "cafe", "contact:fax": "+43 316 81 00 30-40", "contact:phone": "+43 316 81 00 33-00", "diet:gluten_free": "yes", "diet:vegan": "yes", "diet:vegetarian": "yes", "indoor_seating": "yes", "name": "Philipp", "opening_hours": "PH,Mo-Su 08:00-18:00", "outdoor_seating": "yes", "shop": "bakery", "source": "survey", "website": "https://www.konditorei-philipp.at", "website:flash": "only", "wheelchair": "limited"}}, {"type": "node", "id": 31625413, "lat": 47.0611353, "lon": 15.4446691, "tags": {"addr:city": "Graz", "addr:country": "AT", "addr:housenumber": "37a", "addr:postcode": "8010", "addr:street": "Steyrergasse", "brand": "Spar", "brand:wikidata": "Q610492", "brand:wikipedia": "en:Spar (retailer)", "check_date:opening_hours": "2025-04-24", "diet:gluten_free": "yes", "name": "Spar", "opening_hours": "Mo-Fr 07:15-19:30; Sa 07:15-18:00", "operator": "Spar", "shop": "supermarket", "wheelchair": "yes"}}, {"type": "node", "id": 31625430, "lat": 47.0669485, "lon": 15.43779, "tags": {"addr:city": "Graz", "addr:country": "AT", "addr:housenumber": "48", "addr:postcode": "8010", "addr:street": "Neutorgasse", "amenity": "restaurant", "contact:email": "office@goesserbrau-graz.at", "contact:fax": "+43 316 82 99 09-2", "contact:phone": "+43 316 82 99 09", "contact:website": "http://www.goesserbraeugraz.at", "cuisine": "regional", "diet:vegan": "no", "diet:vegetarian": "limited", "name": "G\u00f6sser Br\u00e4u", "opening_hours": "Th-Sa 11:00-24:00; Su-We,Ph 11:00-23:00", "opening_hours:kitchen": "Mo-Su 11:00-22:00", "operator": "G\u00f6sser Br\u00e4u Graz Gastronomie GesmbH", "outdoor_seating": "backyard", "payment:cash": "yes", "payment:debit_cards": "yes", "ref:UID:AT": "ATU61467601", "smoking": "separated", "smoking:note": "separated because isolation-doors were held open", "smoking:outside": "yes", "start_date": "1902", "toilets:wheelchair": "yes", "wheelchair": "yes", "wheelchair:description": "Zugang \u00fcber Kaiserfeldgasse / barrierefreies WC vorhanden"}}, {"type": "node", "id": 33054365, "lat": 47.0787525, "lon": 15.4729648, "tags": {"addr:city": "Graz", "addr:country": "AT", "addr:housenumber": "12-14", "addr:postcode": "8047", "addr:street": "Ragnitzstra\u00dfe", "brand": "Billa", "brand:wikidata": "Q537781", "brand:wikipedia": "de:Billa", "name": "Billa", "opening_hours": "Mo-Fr 07:40-20:00; Sa 07:40-18:00", "operator": "Billa", "shop": "supermarket", "wheelchair": "yes"}}, {"type": "node", "id": 36790855, "lat": 47.0659601, "lon": 15.4266559, "tags": {"amenity": "restaurant", "contact:email": "nil@mur.at", "contact:phone": "+43 316 671041", "cuisine": "african", "name": "Nil", "opening_hours": "Mo-Su 15:00+", "website": "http://nil.mur.at/"}}, {"type": "node", "id": 49192602, "lat": 47.0740742, "lon": 15.4375989, "tags": {"addr:city": "Graz", "addr:country": "AT", "addr:housenumber": "2", "addr:postcode": "8010", "addr:street": "Schlo\u00dfberg", "amenity": "restaurant", "award:Gault-Millau": "1", "check_date": "2023-11-19", "contact:phone": "+43 316 818797", "contact:website": "http://www.aiola.at", "diet:vegetarian": "yes", "indoor_seating": "yes", "name": "Aiola upstairs", "opening_hours": "Mo-Su,PH 09:00-24:00", "outdoor_seating": "yes", "source": "Zeitung \u201eWoche\u201d, 30.10.2013", "wheelchair": "yes", "wheelchair:description": "Barrierefreies rollstuhlgerechtes WC hinter dem Lokal"}}, {"type": "node", "id": 63621200, "lat": 47.0726465, "lon": 15.4523885, "tags": {"addr:city": "Graz", "addr:country": "AT", "addr:housenumber": "29", "addr:postcode": "8010", "addr:street": "Beethovenstra\u00dfe", "amenity": "cafe", "contact:phone": "+43 664 2143853", "contact:website": "https://www.facebook.com/sunnyswohnzimmer/", "name": "Sunny's", "note": "Opening hours are \"variable\"", "old_name": "pharmacy bar, durstK\u00fcche", "opening_hours": "Su-Fr 10:00-23:00; Sa 18:00-23:00"}}, {"type": "node", "id": 77811489, "lat": 47.066591, "lon": 15.441518, "tags": {"addr:city": "Graz", "addr:country": "AT", "addr:housenumber": "18", "addr:postcode": "8010", "addr:street": "Jakominiplatz", "amenity": "fast_food", "brand": "McDonald's", "brand:wikidata": "Q38076", "brand:wikipedia": "en:McDonald's", "cuisine": "burger", "diet:vegetarian": "yes", "drive_through": "no", "indoor_seating": "yes", "internet_access": "wlan, terminal", "name": "McDonald's", "opening_hours": "Mo-Fr 06:00-24:00; Sa 07:00-01:00, Su,PH 07:00-24:00", "operator": "McDonald's", "outdoor_seating": "no", "smoking": "no", "surveillance": "indoor", "takeaway": "yes", "toilets:wheelchair": "no", "wheelchair": "limited"}}, {"type": "node", "id": 251710887, "lat": 47.0717298, "lon": 15.4337489, "tags": {"addr:city": "Graz", "addr:country": "AT", "addr:housenumber": "10", "addr:postcode": "8020", "addr:street": "Mariahilferstra\u00dfe", "amenity": "pub", "name": "Cafe Centraal", "phone": "+43 664 88 46 87 00", "smoking": "yes", "website": "http://www.centraal.at/", "wheelchair": "limited"}}, {"type": "node", "id": 251710888, "lat": 47.070642, "lon": 15.4344504, "tags": {"addr:city": "Graz", "addr:country": "AT", "addr:housenumber": "2", "addr:postcode": "8020", "addr:street": "Grieskai", "amenity": "cafe", "check_date": "2023-03-25", "contact:phone": "+43 316 72 34 69", "contact:website": "http://tribeka.at", "diet:gluten_free": "yes", "diet:lactose_free": "yes", "diet:vegan": "yes", "diet:vegetarian": "yes", "internet_access": "wlan", "name": "tribeka", "opening_hours": "Mo-Fr 07:00-20:00; Sa-Su,PH 08:00-20:00", "outdoor_seating": "yes", "payment:debit_cards": "yes", "payment:mastercard": "yes", "payment:visa": "yes", "smoking": "no", "smoking:outside": "yes", "takeaway": "yes", "toilets:wheelchair": "no", "wheelchair": "yes", "wifi": "free"}}, {"type": "node", "id": 251710889, "lat": 47.0710287, "lon": 15.4339001, "tags": {"addr:city": "Graz", "addr:country": "AT", "addr:housenumber": "2", "addr:postcode": "8020", "addr:street": "S\u00fcdtiroler Platz", "amenity": "cafe", "check_date": "2024-03-04", "contact:email": "info@kunsthauscafe.co.at", "contact:facebook": "https://www.facebook.com/kunsthauscafe", "contact:fax": "+43 316 8017-9212", "contact:phone": "+43 316 71 49 57", "contact:website": "http://kunsthauscafe.co.at/", "diet:vegan": "yes", "diet:vegetarian": "yes", "indoor_seating": "yes", "level": "0", "name": "Kunsthauscaf\u00e9", "old_name": "iKU", "opening_hours": "Mo-Th 09:00-24:00; Fr-Sa 09:00-02:00; Su 09:00-20:00; Dec 24-25 off", "outdoor_seating": "yes", "payment:apple_pay": "yes", "payment:cards": "yes", "payment:cash": "yes", "payment:contactless": "yes", "payment:credit_cards": "yes", "payment:debit_cards": "yes", "payment:mastercard": "yes", "payment:visa": "yes", "smoking": "no", "source": "website", "toilets": "yes", "toilets:wheelchair": "yes", "website": "https://kunsthauscafe.co.at/", "wheelchair": "yes", "wheelchair:description": "Barrierefreies WC vorhanden"}}, {"type": "node", "id": 251710890, "lat": 47.0708361, "lon": 15.4358876, "tags": {"addr:city": "Graz", "addr:country": "AT", "addr:housenumber": "1", "addr:postcode": "8010", "addr:street": "Franziskanerplatz", "amenity": "cafe", "check_date": "2023-11-19", "contact:email": "mail@schwalben.at", "contact:phone": "+43 316 818892", "contact:website": "http://schwalben.at", "diet:dairy_free": "yes", "diet:lactose_free": "yes", "diet:vegan": "yes", "drink:beer:Flamberger": "yes", "drink:beer:Flamberger:Hausbier": "bottled", "drink:beer:Flamberger:Stout": "bottled", "drink:beer:Flamberger:Weissbier": "bottled", "drink:beer:Murauer": "yes", "name": "Schwalbennest", "opening_hours": "Tu-Fr 09:30-18:00; Sa, Su 12:00-18:00; Mo off", "organic": "yes", "outdoor_seating": "yes", "regional": "yes", "smoking": "separated", "website": "http://schwalben.at", "wheelchair": "no", "wheelchair:description": "KEIN barrierefreies WC"}}, {"type": "node", "id": 251710897, "lat": 47.0711946, "lon": 15.4407955, "tags": {"addr:city": "Graz", "addr:country": "AT", "addr:housenumber": "3", "addr:postcode": "8010", "addr:street": "Mehlplatz", "amenity": "restaurant", "contact:phone": "+43 316 677 761", "cuisine": "regional", "name": "Glockenspielkeller", "opening_hours": "Tu-Su 11:00-23:00", "outdoor_seating": "yes", "source": "https://grazer.at/story/de/der-glockenspielkeller-belebt-den-grazer-mehlplatz-WOMfDKbn/", "website": "https://www.glockenspielkeller.at/"}}, {"type": "node", "id": 251711052, "lat": 47.0706865, "lon": 15.4413099, "tags": {"addr:city": "Graz", "addr:country": "AT", "addr:housenumber": "2-4", "addr:postcode": "8010", "addr:street": "Stempfergasse", "amenity": "cafe", "contact:email": "office@frankowitsch.at", "contact:fax": "+43 316 82 22 12-16", "contact:phone": "+43 316 82 22 12", "contact:website": "https://www.frankowitsch.at/", "diet:vegetarian": "yes", "full_name": "Heissenberger KG", "internet_access": "no", "name": "Frankowitsch", "opening_hours": "Mo-Fr 09:00-19:30 open \"B\u00f6tchenbar und Patisserie\"; Mo-Fr 09:00-18:00 open \"Delikatessen\"; Sa 09:00-18:00 open \"B\u00f6tchenbar und Patisserie\"; Sa 09:00-17:00 open \"Delikatessen\"; Su,PH closed", "operator": "Josef Heissenberger", "shop": "deli", "smoking": "no", "start_date": "1932", "wheelchair": "no"}}, {"type": "node", "id": 251711053, "lat": 47.0730205, "lon": 15.440709, "tags": {"addr:city": "Graz", "addr:country": "AT", "addr:housenumber": "2", "addr:postcode": "8010", "addr:street": "Freiheitsplatz", "amenity": "restaurant", "bar": "yes", "cafe": "yes", "check_date": "2025-04-15", "contact:facebook": "https://www.facebook.com/cafemitte.at", "contact:phone": "+43 664 5128528", "cuisine": "thai", "delivery": "yes", "description": "Brunchbuffet Sa & Su 09:00-13:00 (reservation via SMS", "diet:vegan": "yes", "diet:vegetarian": "yes", "indoor_seating": "yes", "name": "Cafe Mitte", "opening_hours": "Mo off; Tu-Th 11:00-00:00, Fr 11:00-01:00, Sa 09:00-01:00, Su 09:00-00:00", "outdoor_seating": "yes", "payment:cash": "yes", "payment:debit_cards": "yes", "smoking": "no", "wheelchair": "no"}}, {"type": "node", "id": 256488416, "lat": 47.0634958, "lon": 15.4246652, "tags": {"amenity": "pub", "name": "For You"}}, {"type": "node", "id": 257412119, "lat": 47.0669589, "lon": 15.4237922, "tags": {"addr:city": "Graz", "addr:country": "AT", "addr:housenumber": "29", "addr:postcode": "8020", "addr:street": "Ungergasse", "amenity": "restaurant", "name": "Gasthaus Doppler", "opening_hours": "Mo-Sa 08:00-22:00; PH,Su 08:00-20:00", "smoking": "yes", "wheelchair": "no"}}, {"type": "node", "id": 257412123, "lat": 47.0670288, "lon": 15.425519, "tags": {"addr:city": "Graz", "addr:country": "AT", "addr:housenumber": "15", "addr:postcode": "8020", "addr:street": "Ungergasse", "amenity": "pub", "name": "Cafe Monaco", "opening_hours": "Mo-Fr 06:00-23:00; Sa,Su 08:00-23:00", "smoking": "yes", "wheelchair": "no"}}, {"type": "node", "id": 257412125, "lat": 47.0673459, "lon": 15.4269241, "tags": {"addr:city": "Graz", "addr:country": "AT", "addr:housenumber": "28", "addr:postcode": "8020", "addr:street": "Elisabethinergasse", "amenity": "pub", "indoor_seating": "yes", "name": "Prince Charles", "opening_hours": "Mo-Fr 09:00-24:00, Sa 16:00-02:00, Su 16:00-24:00", "outdoor_seating": "yes", "wheelchair": "limited"}}, {"type": "node", "id": 257732193, "lat": 47.0732823, "lon": 15.4346186, "tags": {"addr:city": "Graz", "addr:country": "AT", "addr:housenumber": "19", "addr:place": "Mur", "addr:postcode": "8010", "addr:street": "Lendkai", "amenity": "cafe", "check_date:opening_hours": "2024-09-22", "contact:email": "cafe@murinselgraz.at", "contact:phone": "+43 316 822660", "contact:website": "http://www.murinselgraz.at/de/", "diet:vegan": "yes", "diet:vegetarian": "yes", "name": "Murinsel Caf\u00e9", "opening_hours": "Tu-Su 10:00-20:00; Mo,PH off", "smoking": "outside", "toilets:wheelchair": "yes", "wheelchair": "yes", "wheelchair:description": "Barrierefreies WC vorhanden"}}, {"type": "node", "id": 262065341, "lat": 47.0690799, "lon": 15.4845805, "tags": {"addr:city": "Graz", "addr:country": "AT", "addr:housenumber": "121", "addr:postcode": "8010", "addr:street": "Waltendorfer Hauptstra\u00dfe", "brand": "Unimarkt", "brand:wikidata": "Q1169599", "brand:wikipedia": "de:Unimarkt", "contact:website": "https://www.unimarkt.at", "name": "Unimarkt", "opening_hours": "Mo-Fr 07:00-19:00; Sa 07:00-18:00", "operator": "Unimarkt Partner Koch", "shop": "supermarket", "wheelchair": "yes"}}, {"type": "node", "id": 266332008, "lat": 47.0549845, "lon": 15.4161338, "tags": {"addr:city": "Graz", "addr:country": "AT", "addr:housenumber": "3a", "addr:postcode": "8053", "addr:street": "Harter Stra\u00dfe", "amenity": "restaurant", "cuisine": "pizza;italian;regional;seafood", "name": "Michelangelo Shivay", "opening_hours": "10:00-04:00", "website": "https://www.restaurantpizzeriamichelangelo.at/"}}, {"type": "node", "id": 266479021, "lat": 47.0671133, "lon": 15.443242, "tags": {"addr:city": "Graz", "addr:country": "AT", "addr:housenumber": "15", "addr:postcode": "8010", "addr:street": "Jakominiplatz", "air_conditioning": "yes", "amenity": "fast_food", "check_date": "2025-04-26", "contact:facebook": "https://www.facebook.com/pages/Kapadokya-Kebap/222870297744506", "contact:phone": "+43 316 836969", "cuisine": "kebab", "delivery": "no", "diet:vegetarian": "yes", "indoor_seating": "yes", "internet_access": "no", "name": "Kapadokya Kebab", "opening_hours": "Mo-Sa 08:30-04:00, Su 08:30-22:00", "opening_hours:drive_through": "Mo-Sa 09:00-04:00; Su 10:00-22:00", "outdoor_seating": "yes", "payment:cash": "yes", "payment:credit_cards": "no", "payment:debit_cards": "no", "smoking": "no", "source": "survey", "start_date": "1995", "takeaway": "yes", "website": "https://kapadokya-jakominiplatz.eatbu.com/?lang=de", "wheelchair": "limited"}}, {"type": "node", "id": 266479122, "lat": 47.071467, "lon": 15.4360906, "tags": {"addr:city": "Graz", "addr:country": "AT", "addr:housenumber": "1", "addr:postcode": "8010", "addr:street": "Paradeisgasse", "advertising": "poster", "amenity": "pub", "check_date": "2023-11-19", "contact:email": "office@flannobrian.at", "contact:phone": "+43 316 82 96 20", "contact:website": "http://www.flannobrien.at/", "cuisine": "irish", "diet:gluten_free": "yes", "full_name": "Flann O\u00b4Brien Irish Pub", "indoor_seating": "yes", "level": "0", "name": "Flann O'Brien", "opening_hours:kitchen": "Mo-Sa 11:00-23:00; Su 15:00-22:00", "opening_hours:outdoor_seating": "Mo-Sa 11:00-23:00; Su 14:00-23:00", "operator": "C.O.D. Gastrobetriebs GmbH", "outdoor_seating": "yes", "poster": "limited", "smoking": "separated", "source": "survey", "toilets:wheelchair": "no", "wheelchair": "limited"}}, {"type": "node", "id": 266657437, "lat": 47.0632858, "lon": 15.45112, "tags": {"addr:city": "Graz", "addr:country": "AT", "addr:housenumber": "47", "addr:postcode": "8010", "addr:street": "M\u00fcnzgrabenstra\u00dfe", "amenity": "fast_food", "check_date:opening_hours": "2025-01-22", "cuisine": "pizza;kebab;burger", "dog": "no", "indoor_seating": "yes", "name": "Torino", "old_name": "Hubert Auer", "opening_hours": "Mo-Sa 09:00-20:00", "outdoor_seating": "no", "smoking": "no", "source": "survey", "start_date": "2019-10", "was:end_date": "2018-12", "was:shop": "bakery", "wheelchair": "no"}}, {"type": "node", "id": 267255311, "lat": 47.0563436, "lon": 15.4749644, "tags": {"accommodation": "yes", "addr:city": "Graz", "addr:country": "AT", "addr:housenumber": "11", "addr:postcode": "8042", "addr:street": "Petersbergenstra\u00dfe", "alt_name": "Kirchenwirt (vulgo Zechner)", "amenity": "restaurant", "cuisine": "regional;greek", "diet:vegetarian": "yes", "historic_name": "Gasthaus zur Bierquelle", "indoor_seating": "yes", "internet_access": "no", "loc_name": "Zechner", "name": "Kirchenwirt / Restaurant Tinos", "old_name": "Zechner", "opening_hours": "Mo-Su 10:00-22:00", "operator": "Konstantinos Stergioulis", "outdoor_seating": "yes", "phone": "+43 316 422 344", "smoking": "yes", "takeaway": "yes", "website": "https://www.restauranttinos.at/"}}, {"type": "node", "id": 267255482, "lat": 47.0575627, "lon": 15.4759048, "tags": {"amenity": "cafe", "created_by": "Potlatch 0.9b", "diet:vegetarian": "yes", "name": "Caf\u00e9 Logo", "opening_hours": "Mo-Fr 11:00-22:00; PH,Sa,Su off"}}, {"type": "node", "id": 267256095, "lat": 47.0656578, "lon": 15.4520216, "tags": {"addr:city": "Graz", "addr:country": "AT", "addr:housenumber": "15", "addr:postcode": "8010", "addr:street": "Stremayrgasse", "amenity": "restaurant", "contact:instagram": "https://www.instagram.com/joessas_graz/", "contact:mobile": "+43 660 5213 479", "cuisine": "burger", "diet:vegetarian": "yes", "indoor_seating": "yes", "name": "J\u00f6ssas", "old_name": "North", "opening_hours": "Mo-Fr 10:00-24:00, Sa 16:00+", "outdoor_seating": "yes", "wheelchair": "yes"}}, {"type": "node", "id": 267256633, "lat": 47.0648688, "lon": 15.4483565, "tags": {"addr:city": "Graz", "addr:country": "AT", "addr:housenumber": "17", "addr:postcode": "8010", "addr:street": "M\u00fcnzgrabenstra\u00dfe", "amenity": "restaurant", "award:Gault-Millau": "1", "check_date:opening_hours": "2025-01-17", "contact:email": "info@ristorantecorti.at", "contact:phone": "+43 316 81 70 80", "contact:website": "http://www.ristorantecorti.at", "cuisine": "italian", "indoor_seating": "yes", "name": "Corti", "opening_hours": "Mo-Sa 12:00-15:00, 17:30-24:00", "opening_hours:kitchen": "Mo-Sa 12:00-14:00, 18:00-23:00", "opening_hours:signed": "no", "outdoor_seating": "yes", "source": "Zeitung \u201eWoche\u201d, 30.10.2013", "wheelchair": "no"}}, {"type": "node", "id": 269063448, "lat": 47.0707123, "lon": 15.4029608, "tags": {"addr:city": "Graz", "addr:country": "AT", "addr:housenumber": "36", "addr:postcode": "8020", "addr:street": "Eggenberger Allee", "amenity": "cafe", "diet:vegetarian": "yes", "name": "Sorger", "opening_hours": "Mo-Fr 06:00-19:00; Sa 06:00-13:00; Su 07:00-12:00", "payment:credit_cards": "yes", "payment:debit_cards": "yes", "phone": "+43 316 58 61 25 30", "shop": "bakery", "website": "https://sorgerbrot.at/", "wheelchair": "limited"}}, {"type": "node", "id": 269225090, "lat": 47.1081014, "lon": 15.401232, "tags": {"addr:city": "Graz", "addr:country": "AT", "addr:housenumber": "1", "addr:postcode": "8046", "addr:street": "Weinz\u00f6dl", "amenity": "restaurant", "contact:email": "office@redlodge.at", "contact:website": "www.redlodge.at/restaurant-red-corner/", "name": "Red Corner", "opening_hours": "Mo-Fr 07:30-22:00; Sa,Su 08:00-18:00;Ph off", "phone": "+43 316 691383", "smoking": "separated", "source": "Graz Basiskarte", "source:smoking": "Echo Graz-Nord", "wheelchair": "limited"}}, {"type": "node", "id": 269225159, "lat": 47.1044337, "lon": 15.4000253}, {"type": "node", "id": 269225160, "lat": 47.1045268, "lon": 15.4000967}, {"type": "node", "id": 269225165, "lat": 47.1044134, "lon": 15.4004165}, {"type": "node", "id": 269225167, "lat": 47.104344, "lon": 15.4003634}, {"type": "node", "id": 269227786, "lat": 47.1139776, "lon": 15.4135119, "tags": {"entrance": "main"}}, {"type": "node", "id": 269444696, "lat": 47.1035928, "lon": 15.421792, "tags": {"addr:city": "Graz", "addr:country": "AT", "addr:housenumber": "42a", "addr:postcode": "8045", "addr:street": "Andritzer Reichsstra\u00dfe", "amenity": "fast_food", "contact:fax": "+43 316 698703", "contact:phone": "+43 316 698703", "cuisine": "kebab;pizza", "diet:vegetarian": "yes", "name": "Welat", "opening_hours": "Mo-Su 10:00-21:00", "operator": "Cuma Karademir", "outdoor_seating": "yes", "smoking": "no", "smoking:outside": "yes", "source": "Heinzelm\u00e4nnchen KG", "wheelchair": "yes"}}, {"type": "node", "id": 269444698, "lat": 47.105614, "lon": 15.4208359, "tags": {"addr:city": "Graz", "addr:country": "AT", "addr:housenumber": "58", "addr:postcode": "8045", "addr:street": "Andritzer Reichsstra\u00dfe", "amenity": "cafe", "name": "Kaffee M\u00fchle", "opening_hours": "Mo-Sa 11:00-22:00; PH off", "operator": "A. Bauer", "outdoor_seating": "street_side", "source": "survey"}}, {"type": "node", "id": 269957911, "lat": 47.0712636, "lon": 15.4412307, "tags": {"addr:city": "Graz", "addr:country": "AT", "addr:housenumber": "2-3", "addr:postcode": "8010", "addr:street": "Glockenspielplatz", "amenity": "restaurant", "brewery": "various", "contact:phone": "+43 316 814 781", "contact:website": "https://www.gloecklbraeu.at", "craft": "brewery", "cuisine": "austrian;regional", "diet:halal": "no", "diet:kosher": "no", "diet:vegan": "no", "diet:vegetarian": "yes", "indoor_seating": "yes", "microbrewery": "yes", "name": "Gl\u00f6cklbr\u00e4u", "opening_hours": "Mo-Sa 10:30-22:00; Su 10:30-17:00", "outdoor_seating": "yes", "smoking": "outside", "toilets:wheelchair": "no", "wheelchair": "no"}}, {"type": "node", "id": 270186861, "lat": 47.1036227, "lon": 15.5152659, "tags": {"addr:city": "Graz", "addr:country": "AT", "addr:housenumber": "20", "addr:postcode": "8010", "addr:street": "Rohrbachh\u00f6he", "amenity": "restaurant", "contact:phone": "+43 316 391021-10", "cuisine": "buschenschank", "name": "Buschenschank Sattler", "opening_hours": "Jan-Nov: We-Sa 14:00-23:00", "operator": "Franz Sattler", "regional": "yes"}}, {"type": "node", "id": 270199336, "lat": 47.0509684, "lon": 15.3814072, "tags": {"addr:city": "Graz", "addr:country": "AT", "addr:housenumber": "1", "addr:postcode": "8052", "addr:street": "Sankt-Johann-und-Paul", "amenity": "restaurant", "contact:mobile": "+43 650 4570285", "contact:phone": "+43 316 573166", "name": "Gasthaus St. Johann + Paul", "opening_hours": "Mo off", "outdoor_seating": "yes", "start_date": "1880"}}, {"type": "node", "id": 270330954, "lat": 47.0340387, "lon": 15.3737325, "tags": {"amenity": "restaurant", "name": "Orthacker"}}, {"type": "node", "id": 270508849, "lat": 47.08108, "lon": 15.4041088, "tags": {"addr:city": "Graz", "addr:country": "AT", "addr:housenumber": "45", "addr:postcode": "8020", "addr:street": "Peter-Tunner-Gasse", "amenity": "cafe", "description": "Caf\u00e9, Konditorei und Pizzaria", "diet:vegetarian": "yes", "name": "Caf\u00e9 Pizzeria Rimini", "opening_hours": "Tu-Su 11:00-21:00", "phone": "+4366499302403", "website": "https://www.cafepizzeriarimini.at/"}}, {"type": "node", "id": 271409102, "lat": 47.0642512, "lon": 15.4696701, "tags": {"amenity": "cafe", "name": "Steffis Caf\u00e9", "opening_hours": "Mo,We-Fr 15:00-21:00", "wheelchair": "limited"}}, {"type": "node", "id": 274088373, "lat": 47.0683762, "lon": 15.4601981, "tags": {"addr:city": "Graz", "addr:country": "AT", "addr:housenumber": "2", "addr:postcode": "8010", "addr:street": "Pl\u00fcddemanngasse", "amenity": "cafe", "amenity:old": "pub", "changing_table": "yes", "check_date:opening_hours": "2023-11-02", "contact:phone": "+43 316 8040 115", "contact:website": "https://www.martinauer.at/filialen/", "cuisine": "breakfast;sandwich;regional", "diet:vegetarian": "yes", "indoor_seating": "yes", "internet_access:fee": "no", "level": "0", "name": "Schillerhof by Martin Auer", "old_name": "Schillerhof", "opening_hours": "Mo-Fr 06:00-19:00; Sa 06:30-19:00; Su 07:00-19:00", "outdoor_seating": "yes", "smoking": "outside", "source": "http://www.kleinezeitung.at/s/steiermark/graz/peak_graz/4698376/Letzter-Abend_Nach-115-Jahren_Der-Schillerhof-sperrt-zu?xtor=CS1-15", "start_date": "06-2018"}}, {"type": "node", "id": 274237132, "lat": 47.0601822, "lon": 15.4631541, "tags": {"addr:city": "Graz", "addr:country": "AT", "addr:housenumber": "116", "addr:postcode": "8010", "addr:street": "Petersgasse", "amenity": "restaurant", "cuisine": "texan", "name": "Big Mamas Southern BBQ", "opening_hours": "Mo-Fr 11:30-21:15; Su 16:00-21:15", "smoking": "no", "website": "https://www.big-mamas-southern-bbq-graz.at/", "wheelchair": "limited"}}, {"type": "node", "id": 275416620, "lat": 47.0282741, "lon": 15.4329631, "tags": {"addr:city": "Graz", "addr:country": "AT", "addr:housenumber": "1", "addr:postcode": "8055", "addr:street": "Mitterstra\u00dfe", "amenity": "cafe", "contact:phone": "+43 316 2958020", "contact:website": "https://temmel.com/portfolio/stammhaus/", "email": "cafe@temmel.com", "indoor_seating": "yes", "name": "Temmel", "opening_hours": "May-Oct: 09:00-22:00; Nov-Apr: 09:00-21:00", "outdoor_seating": "yes", "wheelchair": "limited"}}, {"type": "node", "id": 275529960, "lat": 47.0701267, "lon": 15.4964642, "tags": {"addr:city": "Graz", "addr:country": "AT", "addr:housenumber": "32", "addr:postcode": "8042", "addr:street": "Lustb\u00fchelstra\u00dfe", "amenity": "restaurant", "contact:mobile": "+43 664 20 33 777", "contact:phone": "+43 664 1205662", "cuisine": "heuriger", "name": "Mostsch\u00e4nke Schloss Lustb\u00fchel", "opening_hours": "Th-Su 14:00-20:00+", "outdoor_seating": "yes", "website": "http://www.buschenschank.at/Graz/Mostschenke-Schlo%C3%9F-Lustb%C3%BChel"}}, {"type": "node", "id": 276960140, "lat": 47.0722487, "lon": 15.4477908, "tags": {"addr:city": "Graz", "addr:country": "AT", "addr:housenumber": "3", "addr:postcode": "8010", "addr:street": "Leonhardstra\u00dfe", "amenity": "pub", "contact:mobile": "+43699 10002212", "contact:phone": "+43316 337470", "contact:website": "https://www.cohibar.at", "cuisine": "cuban", "name": "Cohibar", "opening_hours": "Su-Th 17:00-02:00, Fr,Sa 17:00-03:00", "smoking": "separated", "smoking:note": "isolation doors open, but ventilation okay. On the other side, on the way to the toilets you need a machete to cut through the air :-/", "wheelchair": "no"}}, {"type": "node", "id": 277415713, "lat": 47.064432, "lon": 15.4370267, "tags": {"addr:city": "Graz", "addr:country": "AT", "addr:housenumber": "21", "addr:postcode": "8010", "addr:street": "Friedrichgasse", "atm": "yes", "brand": "Spar", "brand:wikidata": "Q610492", "brand:wikipedia": "en:Spar (retailer)", "check_date:opening_hours": "2022-07-26", "contact:phone": "+43 316 827408", "contact:website": "https://www.spar.at", "level": "0", "name": "Spar", "opening_hours": "Mo-Fr 07:15-19:30; Sa 07:15-18:00", "operator": "Spar", "payment:cards": "yes", "payment:coins": "yes", "payment:notes": "yes", "shop": "supermarket", "wheelchair": "yes"}}, {"type": "node", "id": 277698073, "lat": 47.0730256, "lon": 15.4367279, "tags": {"addr:city": "Graz", "addr:country": "AT", "addr:housenumber": "20", "addr:postcode": "8010", "addr:street": "Sackstra\u00dfe", "amenity": "cafe", "contact:phone": "+43 650 4105109", "indoor_seating": "yes", "name": "Reinerhof", "opening_hours": "Mo-Fr 09:30-01:00, Sa 09:30-01:00", "outdoor_seating": "yes", "smoking": "outside"}}, {"type": "node", "id": 277698854, "lat": 47.0737159, "lon": 15.4351735}, {"type": "node", "id": 277700351, "lat": 47.0708952, "lon": 15.4014928, "tags": {"addr:city": "Graz", "addr:country": "AT", "addr:housenumber": "46", "addr:postcode": "8020", "addr:street": "Eggenberger Allee", "amenity": "restaurant", "cuisine": "chinese", "name": "Asia Wok Royal", "opening_hours": "We-Mo 11:30-22:00", "wheelchair": "no"}}, {"type": "node", "id": 277764281, "lat": 47.0724061, "lon": 15.4029007}, {"type": "node", "id": 277764282, "lat": 47.0724444, "lon": 15.4024508}, {"type": "node", "id": 278473060, "lat": 47.0665041, "lon": 15.4410314, "tags": {"addr:city": "Graz", "addr:country": "AT", "addr:housenumber": "1;3", "addr:postcode": "8010", "addr:street": "Radetzkystra\u00dfe", "brand": "Spar", "brand:wikidata": "Q610492", "brand:wikipedia": "en:Spar (retailer)", "dog": "no", "name": "Spar", "old_name": "Zielpunkt", "opening_hours": "Mo-Fr 06:45-19:00; Sa 06:45-18:00; Su,PH off", "payment:american_express": "yes", "payment:cash": "yes", "payment:diners_club": "yes", "payment:maestro": "yes", "payment:mastercard": "yes", "payment:visa": "yes", "phone": "+43316 810867", "ramp:stroller": "yes", "shop": "supermarket", "start_date": "17.03.2015", "surveillance": "indoor", "website": "https://www.spar.at", "wheelchair": "yes", "wheelchair:old": "no"}}, {"type": "node", "id": 278691200, "lat": 47.0674784, "lon": 15.4441052, "tags": {"addr:city": "Graz", "addr:country": "AT", "addr:housenumber": "12", "addr:postcode": "8010", "addr:street": "Jakominiplatz", "check_date:opening_hours": "2025-08-20", "contact:phone": "+43 316 837184", "contact:website": "https://www.billa.at/", "level": "-1", "name": "Billa Corso", "opening_hours": "Mo-Fr 07:15-19:30; Sa 07:15-18:00", "operator": "Billa", "payment:credit_cards": "yes", "payment:debit_cards": "yes", "ref:UID:AT": "ATU15255907", "shop": "supermarket", "wheelchair": "yes"}}, {"type": "node", "id": 279160391, "lat": 47.066591, "lon": 15.3860316, "tags": {"amenity": "restaurant", "delivery:covid19": "only", "name": "Gaisberg Stubn", "opening_hours:covid19": "Mo-Sa 10:00-21:00; Su 10:00-17:00", "takeaway:covid19": "only"}}, {"type": "node", "id": 279844208, "lat": 47.0797134, "lon": 15.396272, "tags": {"addr:city": "Graz", "addr:country": "AT", "addr:housenumber": "2", "addr:postcode": "8020", "addr:street": "Annaplatz", "amenity": "restaurant", "name": "Kreuzwirt", "wheelchair": "no"}}, {"type": "node", "id": 280071630, "lat": 47.0850104, "lon": 15.4052994, "tags": {"addr:city": "Graz", "addr:country": "AT", "addr:housenumber": "2", "addr:postcode": "8051", "addr:street": "Mainersbergstra\u00dfe", "amenity": "restaurant", "contact:phone": "+43 316 571 434", "cuisine": "regional", "name": "Bokan", "website": "https://www.bokan-exclusiv.at/restaurant--bar", "wheelchair": "limited", "wheelchair:description": "Barrierefreies WC im Hotel Bokan nutzbar"}}, {"type": "node", "id": 280171006, "lat": 47.071113, "lon": 15.4326595, "tags": {"addr:city": "Graz", "addr:country": "AT", "addr:housenumber": "14", "addr:postcode": "8020", "addr:street": "S\u00fcdtiroler Platz", "amenity": "cafe", "check_date": "2025-10-14", "name": "Cafe Sorger", "opening_hours": "Mo-Fr 07:00-18:30; Sa 07:00-15:00; Su 08:00-15:00", "operator": "Sorger", "phone": "+43-316-714131-11", "shop": "bakery", "smoking": "no", "website": "https://www.sorgerbrot.at/", "wheelchair": "yes"}}, {"type": "node", "id": 280171201, "lat": 47.0663875, "lon": 15.4394936, "tags": {"addr:city": "Graz", "addr:country": "AT", "addr:housenumber": "13", "addr:postcode": "8010", "addr:street": "Radetzkystra\u00dfe", "amenity": "cafe", "diet:vegetarian": "yes", "name": "Deutsch", "opening_hours": "Mo-Fr 07:00-20:00; Sa 08:00-18:00", "source": "survey", "website": "https://vuyo.me/de-view.php?seo=cafe-konditorei-deutsch-554135"}}, {"type": "node", "id": 280171402, "lat": 47.0668002, "lon": 15.4405871, "tags": {"addr:city": "Graz", "addr:country": "AT", "addr:housenumber": "6", "addr:postcode": "8010", "addr:street": "Radetzkystra\u00dfe", "air_conditioning": "yes", "amenity": "restaurant", "contact:phone": "+43 316 9028 92", "cuisine": "asian", "diet:vegan": "yes", "diet:vegetarian": "yes", "indoor_seating": "yes", "name": "eat Asia", "opening_hours": "Tu-Su 11:00-22:00", "outdoor_seating": "no", "running_sushi": "yes", "smoking": "outside", "toilets": "yes", "toilets:wheelchair": "no", "wheelchair": "limited"}}, {"type": "node", "id": 280235883, "lat": 47.069182, "lon": 15.4361446, "tags": {"addr:city": "Graz", "addr:country": "AT", "addr:postcode": "8010", "addr:street": "Andreas-Hofer-Platz", "amenity": "cafe", "check_date": "2025-10-14", "name": "Stix II"}}, {"type": "node", "id": 280236650, "lat": 47.0694638, "lon": 15.4343741, "tags": {"addr:city": "Graz", "addr:country": "AT", "addr:housenumber": "1", "addr:postcode": "8020", "addr:street": "Belgiergasse", "amenity": "restaurant", "award:Gault-Millau": "1", "brand:coffee": "Hausbrandt", "contact:email": "office@der-steirer.at", "contact:fax": "+43 316 70 388", "contact:phone": "+43 316 703 654", "cuisine": "regional", "diet:vegan": "no", "diet:vegetarian": "yes", "name": "Der Steirer", "opening_hours": "Mo-Su 11:00-24:00", "opening_hours:shop": "Mo-Su 10:00-22:00", "payment:credit_cards": "yes", "payment:debit_cards": "yes", "shop": "wine", "source": "Zeitung \u201eWoche\u201d, 30.10.2013", "toilets:wheelchair": "no", "website": "https://www.der-steirer.at/", "wheelchair": "yes"}}, {"type": "node", "id": 280236676, "lat": 47.0694626, "lon": 15.4345258, "tags": {"addr:city": "Graz", "addr:country": "AT", "addr:housenumber": "12", "addr:postcode": "8020", "addr:street": "Grieskai", "amenity": "cafe", "contact:email": "hotel@weitzer.com", "contact:phone": "+43316703400", "contact:website": "http://www.hotelweitzer.com/en/the-hotel/kaffee-weitzer/", "diet:gluten_free": "yes", "diet:vegetarian": "yes", "internet_access": "wlan", "name": "Kaffee Weitzer", "opening_hours": "Mo-Fr 07:00-19:00; Sa,Su,PH 09:00-19:00", "wheelchair": "limited"}}, {"type": "node", "id": 280237319, "lat": 47.0698974, "lon": 15.4341606, "tags": {"addr:city": "Graz", "addr:country": "AT", "addr:floor": "0", "addr:housenumber": "11", "addr:postcode": "8020", "addr:street": "Griesgasse", "amenity": "restaurant", "changing_table": "yes", "check_date": "2025-11-28", "contact:email": "graz@mangolds.at", "contact:facebook": "mangoldsrestaurant/", "contact:fax": "+43 316 71 80 022", "contact:instagram": "mangolds_futter", "contact:phone": "+43 316 71 80 02", "contact:tiktok": "mangolds_futter", "cuisine": "regional", "delivery": "yes", "diet:gluten_free": "yes", "diet:lactose_free": "yes", "diet:vegan": "yes", "diet:vegetarian": "yes", "highchair": "yes", "indoor_seating": "yes", "internet_access": "wlan", "internet_access:fee": "no", "kids_area": "yes", "kids_area:indoor": "yes", "kids_area:outdoor": "no", "level": "0", "name": "Mangolds", "opening_hours": "Mo-Fr 11:30-18:00; Sa 11:30-17:00; Su,PH off", "organic": "yes", "outdoor_seating": "yes", "payment:cards": "yes", "payment:cash": "yes", "payment:contactless": "yes", "payment:credit_cards": "yes", "payment:debit_cards": "yes", "payment:qr_code": "no", "payment:regional": "Graz-Gutschein", "regional": "yes", "smoking": "no", "takeaway": "yes", "toilets": "yes", "website": "https://www.mangolds.com/restaurant-cafe/mangolds-griesgasse/", "wheelchair": "no"}}, {"type": "node", "id": 287632812, "lat": 47.0645313, "lon": 15.3872757, "tags": {"addr:city": "Graz", "addr:country": "AT", "addr:housenumber": "102", "addr:postcode": "8020", "addr:street": "Baiernstra\u00dfe", "amenity": "restaurant", "capacity": "70", "cuisine": "regional", "name": "Gasthof Zum Bayernbrunnen", "opening_hours": "Mo-Fr 09:00-23:00; Sa 09:00-15:00", "outdoor_seating": "yes", "smoking": "isolated", "takeaway": "yes"}}, {"type": "node", "id": 289182716, "lat": 47.0604195, "lon": 15.4681243}, {"type": "node", "id": 289182720, "lat": 47.0604479, "lon": 15.4681789}, {"type": "node", "id": 289182724, "lat": 47.0605406, "lon": 15.4680904}, {"type": "node", "id": 289182727, "lat": 47.0606851, "lon": 15.468319}, {"type": "node", "id": 290440103, "lat": 47.072012, "lon": 15.4479259, "tags": {"addr:city": "Graz", "addr:country": "AT", "addr:housenumber": "2", "addr:postcode": "8010", "addr:street": "Leonhardstra\u00dfe", "amenity": "restaurant", "contact:fax": "+43 316 89 07 32 15", "contact:phone": "+43 316 890732", "cuisine": "vietnamese", "food": "yes", "level": "0", "name": "Le Viet", "old_name": "Pastis", "opening_hours": "Mo-Th 11:30-23:00, Fr-Sa 11:00-01:00; Su,PH off", "phone": "+43 316 22 88 26 15", "smoking": "no", "source": "survey", "start_date": "2022-02", "website": "https://leviet-graz.at/index.html", "wheelchair": "limited"}}, {"type": "node", "id": 291463570, "lat": 47.0715534, "lon": 15.4403123, "tags": {"addr:city": "Graz", "addr:country": "AT", "addr:housenumber": "15", "addr:postcode": "8010", "addr:street": "F\u00e4rbergasse", "amenity": "bar", "indoor_seating": "yes", "level": "0", "name": "Molly Malone", "outdoor_seating": "yes", "smoking": "outside"}}, {"type": "node", "id": 291463571, "lat": 47.0713952, "lon": 15.4397802, "tags": {"addr:city": "Graz", "addr:country": "AT", "addr:housenumber": "1", "addr:postcode": "8010", "addr:street": "F\u00e4rberplatz", "amenity": "cafe", "contact:email": "office@m1-bar.at", "contact:phone": "+43 316 811233", "contact:website": "http://m1-bar.at", "dance:opening_hours": "Mo: 21:00+", "dance:style": "Mo: Latino", "name": "M1 Cafe-Bar", "opening_hours": "Mo-Sa, PH 09:00-02:00; Su off", "wheelchair": "yes"}}, {"type": "node", "id": 291463572, "lat": 47.0713595, "lon": 15.4396963, "tags": {"addr:city": "Graz", "addr:country": "AT", "addr:housenumber": "1", "addr:postcode": "8010", "addr:street": "F\u00e4rberplatz", "amenity": "pub", "name": "Nachtexpress", "opening_hours": "We-Sa 21:00-05:00", "smoking": "yes", "wheelchair": "no"}}, {"type": "node", "id": 291464594, "lat": 47.0668081, "lon": 15.4464551, "tags": {"addr:city": "Graz", "addr:country": "AT", "addr:housenumber": "9", "addr:postcode": "8010", "addr:street": "Schl\u00f6gelgasse", "amenity": "restaurant", "check_date:opening_hours": "2025-02-25", "contact:email": "restaurant.athen1992@gmail.com", "contact:phone": "+43 316 816111", "contact:website": "https://restaurant-athen-graz.eatbu.com/", "cuisine": "greek", "diet:vegan": "no", "diet:vegetarian": "yes", "indoor_seating": "yes", "name": "Athen", "opening_hours": "Mo-Sa 11:00-24:00; PH 17:00-24:00; Su off", "opening_hours:kitchen": "Mo-Sa 11:00-22:00; PH 17:00-22:00; Su off", "outdoor_seating": "no", "smoking": "no", "wheelchair": "no"}}, {"type": "node", "id": 291464595, "lat": 47.0667373, "lon": 15.446631, "tags": {"addr:city": "Graz", "addr:country": "AT", "addr:housenumber": "1", "addr:postcode": "8010", "addr:street": "Dietrichsteinplatz", "air_conditioning": "yes", "amenity": "fast_food", "check_date": "2025-08-20", "check_date:diet:vegan": "2025-08-20", "cuisine": "kebab", "diet:vegan": "no", "diet:vegetarian": "yes", "indoor_seating": "yes", "name": "Pamukkale", "opening_hours": "24/7", "outdoor_seating": "no", "payment:credit_cards": "no", "payment:debit_cards": "no", "smoking": "no", "toilets": "yes", "toilets:wheelchair": "no", "wheelchair": "no"}}, {"type": "node", "id": 291464824, "lat": 47.0759792, "lon": 15.4501682, "tags": {"entrance": "yes"}}, {"type": "node", "id": 291464829, "lat": 47.0785114, "lon": 15.4465003, "tags": {"addr:city": "Graz", "addr:country": "AT", "addr:housenumber": "18", "addr:postcode": "8010", "addr:street": "Heinrichstra\u00dfe", "amenity": "restaurant", "check_date:opening_hours": "2022-03-20", "contact:phone": "+43 316 361636", "cuisine": "austrian", "cuisine:note": "mainly deep-fried food", "diet:gluten_free": "no", "diet:vegetarian": "yes", "name": "3 Goldenen Kugeln", "opening_hours": "Mo-Su 11:00-24:00", "opening_hours:kitchen": "Mo-Su 11:00-23:00", "smoking": "isolated", "wheelchair": "no"}}, {"type": "node", "id": 291465007, "lat": 47.0715916, "lon": 15.4197924, "tags": {"addr:city": "Graz", "addr:country": "AT", "addr:housenumber": "89", "addr:postcode": "8020", "addr:street": "Bahnhofg\u00fcrtel", "amenity": "restaurant", "contact:phone": "+43 316 714300", "cuisine": "regional", "diet:gluten_free": "yes", "diet:vegetarian": "yes", "level": "0", "name": "3 Goldenen Kugeln", "opening_hours": "Su-Th 10:00-22:00; Fr,Sa 10:00-23:00", "wheelchair": "yes"}}, {"type": "node", "id": 291465085, "lat": 47.0732717, "lon": 15.4330359, "tags": {"addr:city": "Graz", "addr:country": "AT", "addr:housenumber": "17", "addr:postcode": "8020", "addr:street": "Mariahilferstra\u00dfe", "amenity": "pub", "check_date": "2022-11-07", "contact:email": "info@brot-spiele.com", "contact:facebook": "https://www.facebook.com/brotspiele/", "contact:fax": "+43 316 71508173", "contact:phone": "+43 316 715081", "contact:website": "https://www.brot-spiele.com/", "cuisine": "burger;international", "diet:dairy_free": "yes", "diet:egg_free": "yes", "diet:gluten_free": "yes", "diet:vegetarian": "yes", "indoor_seating": "yes", "internet_access": "wlan;terminal", "level": "0", "name": "Brot & Spiele", "opening_hours": "Mo-Fr 10:00-02:00, Sa,Su,PH 12:00-02:00", "operator": "Rupert Josef Thurner Gastro Betr. GmbH & COKG", "outdoor_seating": "yes", "payment:cards": "yes", "payment:cash": "yes", "smoking": "isolated", "source": "survey", "sport": "billard;darts;chess", "toilets:wheelchair": "no", "wheelchair": "limited"}}, {"type": "node", "id": 292476935, "lat": 47.1115959, "lon": 15.3734481, "tags": {"amenity": "pub", "name": "Raachwirt"}}, {"type": "node", "id": 292478042, "lat": 47.1003797, "lon": 15.3940199, "tags": {"addr:city": "Graz", "addr:country": "AT", "addr:housenumber": "1", "addr:postcode": "8051", "addr:street": "Stra\u00dfengelstra\u00dfe", "amenity": "cafe", "cuisine": "cake", "name": "Cafe Viktoria", "opening_hours": "Mo-Fr 06:30-18:30; PH,Sa,Su 07:30-18:30", "operator": "B\u00e4ckerei Konditorei K\u00f6nig", "smoking": "no", "wheelchair": "limited"}}, {"type": "node", "id": 297464322, "lat": 47.0712441, "lon": 15.4420218, "tags": {"addr:city": "Graz", "addr:country": "AT", "addr:housenumber": "6", "addr:postcode": "8010", "addr:street": "B\u00fcrgergasse", "amenity": "restaurant", "award:Gault-Millau": "1", "contact:phone": "+43 316 81 18 22", "name": "Santa Clara", "source": "Zeitung \u201eWoche\u201d, 30.10.2013"}}, {"type": "node", "id": 297464403, "lat": 47.0713886, "lon": 15.4419181, "tags": {"addr:city": "Graz", "addr:country": "AT", "addr:housenumber": "4", "addr:postcode": "8010", "addr:street": "B\u00fcrgergasse", "amenity": "restaurant", "contact:email": "gasthaus@stainzerbauer.at", "contact:fax": "+43 316 81 58 75", "contact:phone": "+43 316 821106", "contact:website": "https://www.stainzerbauer.at", "cuisine": "regional", "name": "Stainzerbauer", "opening_hours": "Tu-Su 11:00-24:00", "opening_hours:kitchen": "Tu-Su 11:30-21:30", "wheelchair": "yes"}}, {"type": "node", "id": 299587849, "lat": 47.0768069, "lon": 15.4474776, "tags": {"addr:city": "Graz", "addr:country": "AT", "addr:housenumber": "26", "addr:postcode": "8010", "addr:street": "Harrachgasse", "amenity": "cafe", "contact:phone": "+43 316 322671", "diet:vegetarian": "yes", "entrance": "yes", "name": "Harrach", "opening_hours": "Mo-Su 09:00-24:00", "source": "survey", "wheelchair": "no"}}, {"type": "node", "id": 300958650, "lat": 47.0714154, "lon": 15.4366935, "tags": {"addr:city": "Graz", "addr:country": "AT", "addr:housenumber": "2", "addr:postcode": "8010", "addr:street": "Badgasse", "amenity": "pub", "cuisine": "irish", "name": "O'Carolans", "opening_hours": "PH,Mo-Su 19:00-04:00", "smoking": "yes", "wheelchair": "no"}}, {"type": "node", "id": 301265567, "lat": 47.0770017, "lon": 15.445228, "tags": {"addr:city": "Graz", "addr:country": "AT", "addr:housenumber": "6", "addr:postcode": "8010", "addr:street": "Attemsgasse", "amenity": "cafe", "contact:email": "info@cafe-fotter.at", "contact:facebook": "https://www.facebook.com/CafeFotter", "contact:instagram": "https://www.instagram.com/cafe_fotter", "contact:phone": "+43 316 322146", "contact:website": "https://www.cafe-fotter.at", "description": "Seit 03.10.2016 wieder offen", "diet:dairy_free": "yes", "diet:lactose_free": "yes", "diet:vegan": "yes", "diet:vegetarian": "yes", "name": "Fotter", "opening_hours": "Mo-Fr 07:30-19:00; Sa 09:00-14:00; Su,Ph off", "operator": "Meilenstein Gastronomie OG", "outdoor_seating": "backyard", "ref:UID:AT": "ATU69908157", "smoking": "no", "source": "survey", "wheelchair": "no"}}, {"type": "node", "id": 302596584, "lat": 47.073174, "lon": 15.4166678}, {"type": "node", "id": 302596587, "lat": 47.0722389, "lon": 15.4173184}, {"type": "node", "id": 309560419, "lat": 47.0766191, "lon": 15.4473415, "tags": {"addr:city": "Graz", "addr:country": "AT", "addr:housenumber": "22", "addr:postcode": "8010", "addr:street": "Harrachgasse", "amenity": "restaurant", "cafe": "yes", "changing_table": "yes", "check_date": "2025-03-22", "cuisine": "italian;pizza", "delivery": "yes", "diet:vegan": "yes", "diet:vegetarian": "yes", "fair_trade": "yes", "highchair": "yes", "internet_access": "wlan", "internet_access:fee": "customers", "name": "Galliano", "opening_hours": "Mo-Su,PH 12:00-23:00", "outdoor_seating": "streetside", "payment:cash": "yes", "payment:credit_cards": "yes", "payment:debit_cards": "yes", "phone": "+43316326232", "reservation": "yes", "smoking": "no", "source": "survey", "start_date": "1995", "takeaway": "yes", "toilets": "yes", "website": "https://galliano.cc/", "wheelchair": "no"}}, {"type": "node", "id": 312946789, "lat": 47.0709234, "lon": 15.4430915, "tags": {"amenity": "pub", "name": "The Office Pub", "wheelchair": "limited"}}, {"type": "node", "id": 312946791, "lat": 47.0708695, "lon": 15.4428865, "tags": {"amenity": "bar", "name": "The Spot", "wheelchair": "limited"}}, {"type": "node", "id": 312946798, "lat": 47.0711057, "lon": 15.4415273, "tags": {"amenity": "bar", "last_checked": "2016-07-10", "name": "Hasenstall", "wheelchair": "no"}}, {"type": "node", "id": 312946799, "lat": 47.0718696, "lon": 15.4395355, "tags": {"addr:city": "Graz", "addr:country": "AT", "addr:housenumber": "9", "addr:postcode": "8010", "addr:street": "F\u00e4rbergasse", "amenity": "pub", "name": "Dizzy's", "opening_hours": "Mo-Su 17:00-01:00", "smoking:outside": "yes", "start_date": "1977", "wheelchair": "limited"}}, {"type": "node", "id": 316419529, "lat": 47.0671951, "lon": 15.4438171, "tags": {"addr:city": "Graz", "addr:country": "AT", "addr:housenumber": "13", "addr:postcode": "8010", "addr:street": "Jakominiplatz", "amenity": "restaurant", "cuisine": "chicken", "diet:vegetarian": "no", "indoor_seating": "yes", "name": "Gefl\u00fcgel Draxler", "opening_hours": "Mo 08:00-13:00; Tu-Fr 08:00-15:00; Sa 07:30-12:30", "organic": "no", "outdoor_seating": "no", "phone": "+43 316 827321", "regional": "yes", "self_service": "yes", "shop": "butcher", "smoking": "no", "source": "survey", "takeaway": "yes", "website": "https://www.gefluegel-draxler.at/", "wheelchair": "yes"}}, {"type": "node", "id": 316756802, "lat": 47.0567999, "lon": 15.4730551, "tags": {"addr:city": "Graz", "addr:country": "AT", "addr:housenumber": "61", "addr:postcode": "8042", "addr:street": "Sankt-Peter-Hauptstra\u00dfe", "amenity": "restaurant", "cuisine": "pizza", "diet:vegetarian": "yes", "indoor_seating": "yes", "name": "Gambaro Rosso", "opening_hours": "Mo-Su 10:30-23:00", "outdoor_seating": "no", "source": "survey", "website": "https://www.gambarorosso.at", "wheelchair": "limited"}}, {"type": "node", "id": 317172598, "lat": 47.049089, "lon": 15.4153117}, {"type": "node", "id": 317335810, "lat": 47.0742476, "lon": 15.4325893, "tags": {"addr:city": "Graz", "addr:country": "AT", "addr:housenumber": "2", "addr:postcode": "8020", "addr:street": "Stockergasse", "amenity": "pub", "contact:email": "office@scherbe.com", "contact:phone": "+43 316 760654", "diet:gluten_free": "no", "diet:vegan": "yes", "diet:vegetarian": "yes", "drink:beer:La\u0161ko": "draught", "drink:beer:Murauer": "draught", "food": "yes", "indoor_seating": "yes", "name": "Die Scherbe", "opening_hours": "Mo-Sa 09:00-01:00; Su 09:00-24:00", "operator": "die Scherbe Gastronomie GmbH", "outdoor_seating": "yes", "smoking": "isolated", "toilets:wheelchair": "yes", "website": "https://www.scherbe.com/", "wheelchair": "yes", "wheelchair:description": "Ebenerdig Stufenlos erreichbar, neues barrierefreies Behinderten-WC neben B\u00fcro im Lokal"}}, {"type": "node", "id": 319117428, "lat": 47.0695892, "lon": 15.4284994, "tags": {"addr:city": "Graz", "addr:country": "AT", "addr:housenumber": "17", "addr:postcode": "8020", "addr:street": "Maria-Stromberger-Gasse", "amenity": "restaurant", "cuisine": "pizza", "email": "ristorante@dueamici.at", "name": "Due Amici", "old_name": "Bosporus", "opening_hours": "Tu-Sa 11:00-23:00; Tu-Sa 11:00-22:00 K\u00fcche", "phone": "+43 316 71530411", "website": "https://www.dueamici.at/"}}, {"type": "node", "id": 319117640, "lat": 47.0726767, "lon": 15.4242339, "tags": {"addr:city": "Graz", "addr:country": "AT", "addr:housenumber": "11", "addr:postcode": "8020", "addr:street": "Hans-Resel-Gasse", "amenity": "restaurant", "check_date": "2025-04-30", "check_date:opening_hours": "2025-04-30", "cuisine": "local", "name": "Resel Stube", "opening_hours": "Mo-Fr 10:00-22:00", "opening_hours:signed": "no", "wheelchair": "no"}}, {"type": "node", "id": 327097865, "lat": 47.0809613, "lon": 15.4035657, "tags": {"addr:city": "Graz", "addr:country": "AT", "addr:housenumber": "47", "addr:postcode": "8020", "addr:street": "Peter-Tunner-Gasse", "brand": "Billa", "brand:wikidata": "Q537781", "brand:wikipedia": "en:Billa (supermarket)", "check_date:opening_hours": "2025-01-06", "name": "Billa", "opening_hours": "Mo-Fr 07:15-19:30; Sa 07:15-18:00", "phone": "+43 59915 06588", "ref": "06588", "ref:UID:AT": "15255907", "shop": "supermarket", "wheelchair": "yes"}}, {"type": "node", "id": 330011818, "lat": 47.065556, "lon": 15.4518867, "tags": {"addr:city": "Graz", "addr:postcode": "8010", "addr:street": "Stremayrgasse", "amenity": "pub", "contact:phone": "+43 316 228254", "indoor_seating": "yes", "name": "South", "opening_hours": "Mo-Fr 09:00-01:00; Sa 18:00+", "outdoor_seating": "yes", "website": "http://www.northandsouth.at/"}}, {"type": "node", "id": 330064861, "lat": 47.0695711, "lon": 15.4510377, "tags": {"addr:city": "Graz", "addr:country": "AT", "addr:housenumber": "28", "addr:postcode": "8010", "addr:street": "Gartengasse", "amenity": "pub", "check_date:opening_hours": "2022-07-16", "contact:email": "office@bar28.at", "contact:phone": "+43 316 41 95 46", "contact:website": "http://www.bar28.at", "indoor_seating": "yes", "level": "0", "name": "Bar28", "old_name": "Prost", "opening_hours": "Mo-Su 08:00-24:00", "operator": "Gary Round;David Biggins", "outdoor_seating": "yes", "smoking": "separated", "wheelchair": "no"}}, {"type": "node", "id": 330263916, "lat": 47.0730459, "lon": 15.4361294, "tags": {"addr:city": "Graz", "addr:country": "AT", "addr:housenumber": "22", "addr:postcode": "8010", "addr:street": "Sackstra\u00dfe", "amenity": "restaurant", "contact:email": "graz@klyo.at", "contact:phone": "+43 316 228 769", "cuisine": "regional;burger;asian", "name": "KLYO", "old_name": "Alte M\u00fcnze", "opening_hours": "Mo-Su 09:00-17:00", "organic": "limited", "source": "survey", "website": "https://klyo.at/#Graz", "wheelchair": "limited"}}, {"type": "node", "id": 332349946, "lat": 47.0703449, "lon": 15.4014875, "tags": {"addr:city": "Graz", "addr:country": "AT", "addr:housenumber": "49", "addr:postcode": "8020", "addr:street": "Eggenberger Allee", "amenity": "restaurant", "check_date": "2024-09-07", "contact:email": "reservierung@das-eggenberg.at", "contact:fax": "+43 316 2256 98 15", "contact:phone": "+43 316 22 56 98", "name": "Das Eggenberg", "opening_hours": "Mo-Sa 08:00-24:00; Su 08:00-22:00; PH off", "opening_hours:kitchen": "08:00-22:00", "operator": "Oswald & Partner GmbH", "phone": "+43 316 225698", "website": "https://www.das-eggenberg.at/", "wheelchair": "limited"}}, {"type": "node", "id": 333542773, "lat": 47.0684064, "lon": 15.4497427, "tags": {"addr:city": "Graz", "addr:country": "AT", "addr:housenumber": "25", "addr:postcode": "8010", "addr:street": "Lessingstra\u00dfe", "amenity": "cafe", "check_date:opening_hours": "2025-06-05", "contact:facebook": "https://www.facebook.com/kork.cafe/", "contact:phone": "+43 316 873 5799", "diet:vegetarian": "yes", "food": "yes", "indoor_seating": "yes", "internet_access": "wlan", "name": "Kork", "old_name": "Galileo", "opening_hours": "Mo-Fr 11:00-24:00; Sa 18:00-24:00", "outdoor_seating": "yes", "smoking": "no", "source": "survey", "start_date": "03.2016", "toilets:wheelchair": "yes", "wheelchair": "yes", "wheelchair:description": "barrierefreies WC mit EUROKEY im TU Hauptgeb\u00e4ude (Alte Technik)", "wlan": "eduroam"}}, {"type": "node", "id": 339415026, "lat": 47.041019, "lon": 15.4625042, "tags": {"addr:city": "Graz", "addr:country": "AT", "addr:housenumber": "3", "addr:postcode": "8041", "addr:street": "Ostbahnstra\u00dfe", "amenity": "fast_food", "brand": "McDonald's", "brand:wikidata": "Q38076", "brand:wikipedia": "en:McDonald's", "cuisine": "burger", "drive_through": "no", "indoor_seating": "yes", "level": "0", "name": "McDonald's", "operator": "McDonald's", "outdoor_seating": "no", "smoking": "no", "takeaway": "yes", "wheelchair": "yes", "wheelchair:description": "Barrierefreies WC im Einkaufszentrum"}}, {"type": "node", "id": 339715582, "lat": 47.0601379, "lon": 15.4268977, "tags": {"alt_name": "Kentucky Fried Chicken", "amenity": "fast_food", "brand": "KFC", "brand:wikidata": "Q524757", "brand:wikipedia": "en:KFC", "cuisine": "chicken", "drive_through": "no", "level": "2", "name": "KFC", "room": "yes", "smoking": "no", "takeaway": "yes", "toilets:wheelchair": "yes", "wheelchair": "yes", "wheelchair:description": "Barrierefreies WC im Einkaufzentrum"}}, {"type": "node", "id": 344184756, "lat": 47.0716777, "lon": 15.4488569, "tags": {"addr:city": "Graz", "addr:country": "AT", "addr:housenumber": "12", "addr:postcode": "8010", "addr:street": "Maiffredygasse", "amenity": "restaurant", "contact:phone": "+43 316 329389", "contact:website": "https://www.diebausatzlokale.at/grammophon/", "cuisine": "pizza", "diet:vegetarian": "yes", "indoor_seating": "yes", "level": "0", "name": "Grammophon", "opening_hours": "Mo-Su 10:00-02:00", "outdoor_seating": "yes", "smoking": "outside", "wheelchair": "no"}}, {"type": "node", "id": 344195967, "lat": 47.0710119, "lon": 15.4267442, "tags": {"addr:city": "Graz", "addr:country": "AT", "addr:housenumber": "29", "addr:postcode": "8020", "addr:street": "Annenstra\u00dfe", "amenity": "cafe", "check_date": "2024-04-06", "name": "Foyer", "smoking": "no", "website": "http://www.cafefoyer.at", "wheelchair": "yes"}}, {"type": "node", "id": 364371345, "lat": 47.0824187, "lon": 15.4328394, "tags": {"addr:city": "Graz", "addr:country": "AT", "addr:housenumber": "47", "addr:postcode": "8010", "addr:street": "Theodor-K\u00f6rner-Stra\u00dfe", "bulk_purchase": "yes", "contact:email": "info@kornwaage.at", "contact:fax": "+43 316 301326", "contact:name": "Rupert Matzer", "contact:phone": "+43 316 681043", "contact:website": "http://kornwaage.at/", "diet:gluten_free": "yes", "diet:lactose_free": "yes", "diet:vegan": "yes", "name": "Kornwaage", "opening_hours": "Mo-Fr 08:30-19:00; Sa 08:00-13:00", "operator": "Kornwaage Bio-Lebensmittelhandels Ges.m.b.H", "organic": "only", "payment:cash": "yes", "payment:debit_cards": "yes", "shop": "convenience", "source": "survey", "wheelchair": "limited", "wheelchair:description": "Nur steile Rampe mit Handlauf vorhanden"}}, {"type": "node", "id": 365547599, "lat": 47.0731342, "lon": 15.4031721, "tags": {"addr:city": "Graz", "addr:country": "AT", "addr:housenumber": "42", "addr:postcode": "8020", "addr:street": "Georgigasse", "amenity": "restaurant", "contact:email": "das-wirtshaus@roschitz.at", "contact:facebook": "https://www.facebook.com/RoschitzDasWirtshaus", "contact:phone": "+43 316 583419", "contact:website": "http://www.das-wirtshaus.at/", "name": "Roschitz - Das Wirtshaus", "opening_hours": "Mo-Su 11:00-20:00"}}, {"type": "node", "id": 366271309, "lat": 47.0675619, "lon": 15.4404713, "tags": {"addr:city": "Graz", "addr:country": "AT", "addr:housenumber": "8-10", "addr:postcode": "8010", "addr:street": "Joanneumring", "brand": "Denns BioMarkt", "brand:wikidata": "Q48883773", "brand:wikipedia": "de:Denns Biomarkt", "check_date": "2025-05-08", "contact:phone": "+43 316 208153", "diet:dairy_free": "yes", "diet:gluten_free": "yes", "diet:lactose_free": "yes", "diet:raw": "yes", "diet:vegan": "yes", "diet:vegetarian": "yes", "diet:wheat_free": "yes", "dog": "no", "indoor": "yes", "level": "0", "name": "Denns BioMarkt", "old_name": "Stiefelk\u00f6nig", "opening_hours": "Mo-Fr 07:30-19:30; Sa 08:00-18:00; Dec 8 10:00-18:00; Dec 23 07:00-20:00; Dec 24 07:00-14:00; Dec 31 07:00-15:00; PH off", "operator": "Dennree GmbH", "operator:wikidata": "Q1189641", "organic": "only", "payment:cash": "yes", "payment:credit_cards": "yes", "payment:debit_cards": "yes", "payment:regional": "Graz-Gutschein", "power_input": "water", "production_input:natural_recources:fair": "partially", "production_input:natural_recources:regional": "partially", "provides": "food+drink", "shop": "supermarket", "smoking": "no", "start_date": "23.10.2014", "surveillance": "indoor", "wheelchair": "yes", "wheelchair:description": "Toilette nur \u00fcber Stiegen im Keller erreichbar"}}, {"type": "node", "id": 366566728, "lat": 47.0704764, "lon": 15.4379453, "tags": {"addr:city": "Graz", "addr:country": "AT", "addr:housenumber": "3", "addr:postcode": "8010", "addr:street": "Hauptplatz", "brand": "Billa", "brand:wikidata": "Q537781", "brand:wikipedia": "en:Billa (supermarket)", "check_date": "2024-09-22", "check_date:opening_hours": "2021-10-04", "name": "Billa", "opening_hours": "Mo-Fr 07:00-19:15; Sa 07:15-18:00", "shop": "supermarket", "wheelchair": "yes"}}, {"type": "node", "id": 366573470, "lat": 47.0665948, "lon": 15.4416203, "tags": {"addr:city": "Graz", "addr:country": "AT", "addr:housenumber": "18", "addr:postcode": "8010", "addr:street": "Jakominiplatz", "amenity": "cafe", "contact:phone": "+43 316 821433", "diet:vegetarian": "yes", "indoor_seating": "yes", "lastcheck": "2017-02-04", "level": "1", "name": "Stockwerk", "opening_hours": "Mo-Sa 16:00-01:00, Su 16:00-24:00", "outdoor_seating": "no", "smoking": "isolated", "smoking:outside": "yes", "source": "survey", "toilets:wheelchair": "no", "website": "http://stockwerkjazz.mur.at/", "wheelchair": "no"}}, {"type": "node", "id": 367079334, "lat": 47.0795736, "lon": 15.4672239, "tags": {"addr:city": "Graz", "addr:country": "AT", "addr:housenumber": "3-7", "addr:postcode": "8010", "addr:street": "Stiftingtalstra\u00dfe", "brand": "Billa", "brand:wikidata": "Q537781", "brand:wikipedia": "en:Billa (supermarket)", "check_date:opening_hours": "2021-07-30", "name": "Billa", "opening_hours": "Mo-Fr 07:15-19:30; Sa 07:15-18:00", "operator": "Billa", "phone": "+43 316 326789", "ref:UID:AT": "ATU15255907", "shop": "supermarket", "wheelchair": "yes"}}, {"type": "node", "id": 369399156, "lat": 47.0513954, "lon": 15.4266303, "tags": {"addr:city": "Graz", "addr:country": "AT", "addr:housenumber": "1", "addr:postcode": "8020", "addr:street": "Kapellenstra\u00dfe", "brand": "Billa", "brand:wikidata": "Q537781", "brand:wikipedia": "en:Billa (supermarket)", "level": "0", "name": "Billa", "opening_hours": "Mo-Fr 7:15-19:30; Sa 7:15-18:00", "operator": "Billa", "shop": "supermarket", "wheelchair": "no"}}, {"type": "node", "id": 369511878, "lat": 47.0662927, "lon": 15.4471863, "tags": {"addr:city": "Graz", "addr:country": "AT", "addr:housenumber": "12", "addr:postcode": "8010", "addr:street": "Dietrichsteinplatz", "atm": "no", "branch": "Markt", "brand": "Spar", "brand:wikidata": "Q610492", "brand:wikipedia": "en:SPAR (retailer)", "check_date": "2025-01-18", "check_date:opening_hours": "2025-01-18", "diet:halal": "no", "level": "0", "name": "Spar", "opening_hours": "Mo-Fr 07:15-19:30; Sa 07:15-18:00", "phone": "+43 316 824885", "shop": "supermarket", "website": "https://www.spar.at", "wheelchair": "yes"}}, {"type": "node", "id": 369511880, "lat": 47.0702586, "lon": 15.409536, "tags": {"addr:city": "Graz", "addr:country": "AT", "addr:housenumber": "48", "addr:postcode": "8020", "addr:street": "Eggenberger Stra\u00dfe", "amenity": "cafe", "name": "Pucher", "opening_hours": "Mo-Fr 09:00-22:00", "source": "survey", "wheelchair": "no"}}, {"type": "node", "id": 369820208, "lat": 47.1181785, "lon": 15.4769909, "tags": {"addr:city": "Graz", "addr:country": "AT", "addr:housenumber": "119", "addr:postcode": "8044", "addr:street": "Wenisbucher Stra\u00dfe", "amenity": "restaurant", "check_date": "2023-05-05", "cuisine": "buschenschank", "name": "Buschenschank Wastl", "opening_hours": "Th-Fr 16:00+; Mar-Nov: Sa-Su 15:00+"}}, {"type": "node", "id": 371194638, "lat": 47.0755552, "lon": 15.4587509, "tags": {"addr:city": "Graz", "addr:country": "AT", "addr:housenumber": "95", "addr:postcode": "8010", "addr:street": "Leonhardstra\u00dfe", "brand": "Spar", "brand:wikidata": "Q610492", "brand:wikipedia": "en:Spar (retailer)", "check_date": "2025-08-06", "name": "Spar", "opening_hours": "Sa 07:15-18:00; Mo-Fr 07:15-19:30", "operator": "Spar", "phone": "+43 316 348586", "shop": "supermarket", "wheelchair": "yes"}}, {"type": "node", "id": 371194848, "lat": 47.071136, "lon": 15.4484564, "tags": {"addr:city": "Graz", "addr:country": "AT", "addr:housenumber": "8", "addr:postcode": "8010", "addr:street": "Maiffredygasse", "brand": "Spar", "brand:wikidata": "Q610492", "brand:wikipedia": "en:Spar (retailer)", "check_date:opening_hours": "2022-08-28", "contact:email": "spar.osterberger@sparmarkt.at", "contact:phone": "+43 316 329490", "internet_access": "wlan", "level": "0", "name": "Spar", "opening_hours": "Mo-Fr 07:15-19:30; Sa 07:15-18:00", "operator": "Spar Cornelia Mospointer-Gal e.U.", "payment:cash": "yes", "payment:maestro": "yes", "payment:mastercard": "yes", "payment:visa": "yes", "ref": "7374", "ref:UID": "ATU63701989", "shop": "supermarket", "website": "https://www.spar.at/standorte/spar-graz-8010-maiffredygasse-8", "wheelchair": "yes"}}, {"type": "node", "id": 371196594, "lat": 47.0549962, "lon": 15.4385115, "tags": {"addr:city": "Graz", "addr:country": "AT", "addr:housenumber": "68", "addr:postcode": "8010", "addr:street": "Neuholdaugasse", "brand": "Spar", "brand:wikidata": "Q610492", "brand:wikipedia": "en:Spar (retailer)", "check_date:opening_hours": "2022-02-20", "name": "Spar", "opening_hours": "Mo-Fr 07:15-19:30, Sa 07:15-18:00", "operator": "Spar", "shop": "supermarket", "wheelchair": "yes"}}, {"type": "node", "id": 371197149, "lat": 47.071998, "lon": 15.436889, "tags": {"addr:city": "Graz", "addr:country": "AT", "addr:housenumber": "7-13", "addr:postcode": "8010", "addr:street": "Sackstra\u00dfe", "brand": "Spar", "brand:wikidata": "Q610492", "brand:wikipedia": "da:Eurospar", "check_date:opening_hours": "2022-07-09", "level": "-1", "name": "Eurospar", "opening_hours": "Mo-Fr 08:00-19:30; Sa 08:00-18:00", "operator": "Spar", "organic": "limited", "regional": "limited", "shop": "supermarket", "wheelchair": "yes"}}, {"type": "node", "id": 371197426, "lat": 47.0692605, "lon": 15.4419494, "tags": {"addr:city": "Graz", "addr:country": "AT", "addr:housenumber": "14", "addr:postcode": "8010", "addr:street": "Hans-Sachs-Gasse", "atm": "yes", "brand": "Spar", "brand:wikidata": "Q610492", "brand:wikipedia": "en:SPAR (retailer)", "contact:phone": "+43 316 824 785", "name": "Spar", "opening_hours": "Mo-Sa 06:00-21:00", "operator": "Spar", "shop": "supermarket", "source": "survey", "website": "https://www.spar.at/standorte/spar-graz-8010-hans-sachs-gasse-14", "wheelchair": "yes"}}, {"type": "node", "id": 371197467, "lat": 47.08103, "lon": 15.4337673, "tags": {"addr:city": "Graz", "addr:country": "AT", "addr:housenumber": "40", "addr:postcode": "8010", "addr:street": "Lange Gasse", "brand": "Spar", "brand:wikidata": "Q610492", "brand:wikipedia": "en:Spar (retailer)", "name": "Spar", "opening_hours": "Mo-Fr 07:15-19:30; Sa 07:15-18:00", "operator": "Spar", "organic": "limited", "shop": "supermarket", "wheelchair": "yes"}}, {"type": "node", "id": 371202880, "lat": 47.0717058, "lon": 15.428601, "tags": {"addr:city": "Graz", "addr:country": "AT", "addr:housenumber": "3-6", "addr:postcode": "8020", "addr:street": "Volksgartenstra\u00dfe", "brand": "Spar", "brand:wikidata": "Q610492", "brand:wikipedia": "en:SPAR (retailer)", "level": "0", "name": "Eurospar", "opening_hours": "Mo-Fr 7:15-19:30; Sa 7:15-18:00", "operator": "Spar", "organic": "limited", "shop": "supermarket", "wheelchair": "yes"}}, {"type": "node", "id": 371204083, "lat": 47.0603629, "lon": 15.4272499, "tags": {"addr:city": "Graz", "addr:country": "AT", "addr:housenumber": "55", "addr:postcode": "8020", "addr:street": "Fabriksgasse", "amenity": "restaurant", "brand": "Interspar Restaurant", "brand:wikidata": "Q15820339", "cuisine": "regional", "level": "2", "name": "Interspar Restaurant", "operator": "Spar", "room": "yes", "smoking": "isolated", "wheelchair": "yes", "wheelchair:description": "Barrierefreies WC im Einkaufzentrum"}}, {"type": "node", "id": 371204222, "lat": 47.0607948, "lon": 15.4262521, "tags": {"addr:city": "Graz", "addr:country": "AT", "addr:housenumber": "55", "addr:postcode": "8020", "addr:street": "Lazarettg\u00fcrtel", "brand": "Interspar", "brand:wikidata": "Q15820339", "brand:wikipedia": "de:Interspar (\u00d6sterreich)", "check_date:opening_hours": "2023-02-28", "contact:phone": "+43 316 71 04 36", "level": "0", "loc_ref": "1", "name": "Interspar Hypermarkt", "opening_hours": "Mo-Fr 08:00-20:00; Sa 08:00-18:00", "operator": "Spar", "organic": "limited", "room": "yes", "shop": "supermarket", "wheelchair": "yes"}}, {"type": "node", "id": 371388852, "lat": 47.0400873, "lon": 15.4637562, "tags": {"addr:city": "Graz", "addr:country": "AT", "addr:housenumber": "3", "addr:postcode": "8041", "addr:street": "Ostbahnstra\u00dfe", "amenity": "restaurant", "brand": "Interspar Restaurant", "brand:wikidata": "Q15820339", "check_date": "2023-01-18", "cuisine": "regional", "level": "1", "name": "Interspar Restaurant", "operator": "Spar", "smoking": "no", "wheelchair": "yes", "wheelchair:description": "Barrierefreies WC im Einkaufszentrum"}}, {"type": "node", "id": 371392798, "lat": 47.0770538, "lon": 15.4962908, "tags": {"addr:city": "Graz", "addr:country": "AT", "addr:housenumber": "177", "addr:postcode": "8047", "addr:street": "Ragnitzstra\u00dfe", "brand": "Spar", "brand:wikidata": "Q610492", "brand:wikipedia": "en:SPAR (retailer)", "contact:phone": "+43 316 301150", "contact:website": "https://www.spar.at", "name": "Spar", "opening_hours": "Mo-Fr 07:15-19:30; Sa 07:15-18:00", "operator": "Spar", "shop": "supermarket", "wheelchair": "yes"}}, {"type": "node", "id": 371394846, "lat": 47.0335282, "lon": 15.4175451, "tags": {"addr:city": "Graz", "addr:country": "AT", "addr:housenumber": "25", "addr:postcode": "8054", "addr:street": "Weblinger G\u00fcrtel", "brand": "Interspar", "brand:wikidata": "Q15820339", "brand:wikipedia": "de:Interspar (\u00d6sterreich)", "contact:phone": "+43 316 292 090", "level": "0", "name": "Interspar", "opening_hours": "Mo-Fr 08:00-20:00; Sa 08:00-18:00", "operator": "Spar", "organic": "limited", "shop": "supermarket", "source": "survey", "wheelchair": "yes"}}, {"type": "node", "id": 371395088, "lat": 47.0181909, "lon": 15.3993247, "tags": {"addr:city": "Graz", "addr:country": "AT", "addr:housenumber": "451", "addr:postcode": "8054", "addr:street": "K\u00e4rntner Stra\u00dfe", "brand": "Spar", "brand:wikidata": "Q610492", "brand:wikipedia": "en:Spar (retailer)", "name": "Spar", "operator": "Spar", "shop": "supermarket"}}, {"type": "node", "id": 372405647, "lat": 47.0640704, "lon": 15.4425404, "tags": {"addr:city": "Graz", "addr:country": "AT", "addr:housenumber": "2", "addr:postcode": "8010", "addr:street": "Conrad-von-H\u00f6tzendorf-Stra\u00dfe", "brand": "Billa", "brand:wikidata": "Q537781", "brand:wikipedia": "en:Billa (supermarket)", "check_date": "2025-07-06", "check_date:opening_hours": "2025-07-06", "contact:phone": "+43 316 8516 00", "name": "Billa", "opening_hours": "Mo-Fr 06:45-19:00; Sa 07:15-18:00", "operator": "Billa", "shop": "supermarket", "website": "https://www.billa.at", "wheelchair": "yes"}}, {"type": "node", "id": 372409546, "lat": 47.1136334, "lon": 15.4216294, "tags": {"addr:country": "AT", "addr:postcode": "8045", "brand": "Billa", "brand:wikidata": "Q537781", "brand:wikipedia": "de:Billa", "check_date": "2024-11-30", "name": "Billa", "opening_hours": "Mo-Fr 07:15-19:00; Sa 07:15-18:00; Su,PH off", "operator": "Billa", "payment:cash": "yes", "payment:debit_cards": "yes", "phone": "+435991506518", "shop": "supermarket", "website": "https://www.billa.at/", "wheelchair": "yes"}}, {"type": "node", "id": 372412070, "lat": 47.0929559, "lon": 15.4071377, "tags": {"addr:city": "Graz", "addr:country": "AT", "addr:housenumber": "240", "addr:postcode": "8051", "addr:street": "Wiener Stra\u00dfe", "brand": "Billa stop & shop", "brand:wikidata": "Q117309603", "check_date": "2025-10-11", "description": "inside / innerhalb JET", "name": "Billa stop & shop", "opening_hours": "Mo-Sa 05:00-23:00; Su,PH 06:00-23:00", "operator": "Billa", "shop": "convenience"}}, {"type": "node", "id": 372414302, "lat": 47.0709558, "lon": 15.4278941, "tags": {"addr:city": "Graz", "addr:country": "AT", "addr:housenumber": "23", "addr:postcode": "8020", "addr:street": "Annenstra\u00dfe", "brand": "Billa", "brand:wikidata": "Q537781", "brand:wikipedia": "en:Billa (supermarket)", "level": "0", "name": "Billa", "opening_hours": "Mo-Fr 07:15-19:30; Sa 07:15-18:00", "operator": "Billa", "phone": "+43 59915 06262", "shop": "supermarket", "wheelchair": "yes"}}, {"type": "node", "id": 372414702, "lat": 47.0758967, "lon": 15.4302384, "tags": {"addr:city": "Graz", "addr:country": "AT", "addr:housenumber": "36-37", "addr:postcode": "8020", "addr:street": "Lendplatz", "brand": "Billa", "brand:wikidata": "Q537781", "brand:wikipedia": "en:Billa (supermarket)", "check_date": "2024-03-22", "check_date:opening_hours": "2024-03-22", "level": "0", "name": "Billa", "opening_hours": "Mo-Fr 07:15-19:30; Sa 07:15-18:00", "operator": "Billa AG", "shop": "supermarket", "source": "survey", "website": "https://www.billa.at", "wheelchair": "yes"}}, {"type": "node", "id": 372425895, "lat": 47.0668704, "lon": 15.4298955, "tags": {"addr:city": "Graz", "addr:country": "AT", "addr:housenumber": "12", "addr:postcode": "8020", "addr:street": "R\u00f6sselm\u00fchlgasse", "brand": "Billa", "brand:wikidata": "Q537781", "brand:wikipedia": "en:Billa (supermarket)", "name": "Billa", "opening_hours": "Mo-Fr 07:40-20:00; Sa 07:40-18:00", "operator": "Billa", "shop": "supermarket", "wheelchair": "yes"}}, {"type": "node", "id": 372479468, "lat": 47.1055521, "lon": 15.3971177, "tags": {"addr:city": "Graz", "addr:country": "AT", "addr:housenumber": "351", "addr:postcode": "8051", "addr:street": "Wiener Stra\u00dfe", "brand": "Billa Plus", "brand:wikidata": "Q115431077", "brand:wikipedia": "de:Billa", "contact:phone": "+43 316 67 06 12", "level": "0", "name": "Billa Plus", "old_name": "Merkur", "opening_hours": "Mo-Th 08:00-19:30; Fr 07:30-20:00; Sa 07:00-18:00", "operator": "Merkur", "shop": "supermarket", "website": "https://www.billa.at", "wheelchair": "yes"}}, {"type": "node", "id": 377660879, "lat": 47.0643223, "lon": 15.4083693}, {"type": "node", "id": 377660903, "lat": 47.0642914, "lon": 15.408211}, {"type": "node", "id": 377665204, "lat": 47.0643946, "lon": 15.4083297}, {"type": "node", "id": 377665208, "lat": 47.0643633, "lon": 15.4081756}, {"type": "node", "id": 382384686, "lat": 47.0711379, "lon": 15.431064, "tags": {"addr:city": "Graz", "addr:country": "AT", "addr:housenumber": "8", "addr:postcode": "8020", "addr:street": "Annenstra\u00dfe", "brand": "Penny", "brand:wikidata": "Q284688", "brand:wikipedia": "en:Penny (supermarket)", "check_date": "2025-09-03", "check_date:opening_hours": "2023-04-24", "contact:phone": "+43 316 760 436", "diet:halal": "yes", "diet:kosher": "yes", "name": "Penny", "opening_hours": "Mo-Fr 07:15-19:30; Sa 07:15-18:00", "operator": "Penny", "shop": "supermarket", "wheelchair": "no"}}, {"type": "node", "id": 387527897, "lat": 47.0786672, "lon": 15.4463102, "tags": {"addr:city": "Graz", "addr:country": "AT", "addr:housenumber": "15", "addr:postcode": "8010", "addr:street": "Heinrichstra\u00dfe", "amenity": "restaurant", "breakfast": "yes", "check_date:opening_hours": "2025-10-25", "contact:phone": "+43 316 328458", "contact:website": "http://diebausatzlokale.at", "cuisine": "pizza,toast,salad", "diet:vegetarian": "yes", "entrance": "yes", "name": "Zeppelin", "opening_hours": "Mo-Fr 11:00-14:00,17:00-18:00+; Sa,Su,PH 17:00-18:00+", "smoking": "isolated", "source": "survey", "toilets:wheelchair": "no", "wheelchair": "limited"}}, {"type": "node", "id": 387528628, "lat": 47.0740822, "lon": 15.4237729, "tags": {"addr:city": "Graz", "addr:country": "AT", "addr:housename": "Rondo", "addr:housenumber": "1", "addr:postcode": "8020", "addr:street": "Marienplatz", "amenity": "restaurant", "indoor_seating": "yes", "level": "0", "name": "Rondo", "opening_hours": "Mo-Fr 10:00-21:00; Sa 17:00-21:00; PH,Su off", "outdoor_seating": "yes", "phone": "+43316258898", "smoking": "no", "toilets:wheelchair": "yes", "website": "https://www.restaurant-rondo.at/", "wheelchair": "yes"}}, {"type": "node", "id": 418639380, "lat": 47.0802024, "lon": 15.4506438, "tags": {"addr:city": "Graz", "addr:country": "AT", "addr:housenumber": "56", "addr:postcode": "8010", "addr:street": "Heinrichstra\u00dfe", "amenity": "pub", "check_date:opening_hours": "2022-03-20", "contact:phone": "+43 316 321510", "contact:website": "http://diebausatzlokale.at", "cuisine": "burger;pizza", "last_checked": "2016-08-07", "level": "0", "name": "Bierbaron", "opening_hours": "Mo-Su 10:00-02:00", "smoking": "isolated", "source": "survey", "takeaway": "yes", "wheelchair": "limited"}}, {"type": "node", "id": 418715364, "lat": 47.0769429, "lon": 15.4444663, "tags": {"addr:city": "Graz", "addr:country": "AT", "addr:housenumber": "7", "addr:street": "Glacisstra\u00dfe", "check_date:opening_hours": "2025-01-17", "contact:phone": "+43 316 323135", "entrance": "yes", "name": "Feinkost Lichtenegger", "opening_hours": "Mo-Fr 08:00-18:00; Sa 08:00-13:00", "shop": "convenience", "wheelchair": "no"}}, {"type": "node", "id": 442888896, "lat": 47.0727512, "lon": 15.4523215, "tags": {"amenity": "bar", "name": "Guest Room", "smoking": "separated", "wheelchair": "no"}}, {"type": "node", "id": 446721187, "lat": 47.0722838, "lon": 15.4440136}, {"type": "node", "id": 446861206, "lat": 47.0729179, "lon": 15.4365184, "tags": {"addr:city": "Graz", "addr:country": "AT", "addr:housenumber": "20", "addr:postcode": "8010", "addr:street": "Sackstra\u00dfe", "amenity": "cafe", "indoor_seating": "yes", "name": "das MARKUS - Wein - Bar - Gourmandise", "old_name:2": "Spezerei Graf Leopold", "old_name:2:end_date": "2019-09", "opening_hours": "Mi-Sa 17:00-00:00", "outdoor_seating": "yes", "phone": "+43 316 812869", "smoking": "no", "website": "https://das-markus.at"}}, {"type": "node", "id": 446866223, "lat": 47.0703425, "lon": 15.437298, "tags": {"addr:city": "Graz", "addr:country": "AT", "addr:housenumber": "3", "addr:postcode": "8010", "addr:street": "Neue-Welt-Gasse", "amenity": "restaurant", "contact:fax": "+43 316 84 54 96-10", "contact:phone": "+43 316 84 54 96", "contact:website": "https://www.doncamillo.at", "cuisine": "italian", "diet:gluten_free": "yes", "diet:vegan": "yes", "diet:vegetarian": "yes", "indoor_seating": "yes", "name": "Don Camillo", "opening_hours": "Mo-Sa 10:30-22:00; PH,Su 11:00-22:00", "operator": "Fritz Walter", "outdoor_seating": "yes", "smoking": "no", "start_date": "2000", "toilets:wheelchair": "no", "wheelchair": "limited"}}, {"type": "node", "id": 448773583, "lat": 47.0715872, "lon": 15.4363643}, {"type": "node", "id": 452490438, "lat": 47.0712908, "lon": 15.4395713, "tags": {"addr:city": "Graz", "addr:country": "AT", "addr:housenumber": "4", "addr:postcode": "8010", "addr:street": "Prokopigasse", "amenity": "restaurant", "contact:email": "info@yamamoto-sushibar.at", "contact:phone": "+43 316 852852", "contact:website": "http://www.yamamoto-sushibar.at", "cuisine": "japanese", "last_checked": "2016-07-10", "name": "Yamamoto", "opening_hours": "Mo-Sa 11:30-22:00; PH off", "opening_hours:kitchen": "Tu-Sa 12:00-21:30", "smoking": "no", "wheelchair": "yes"}}, {"type": "node", "id": 454412013, "lat": 47.0755105, "lon": 15.448421, "tags": {"addr:city": "Graz", "addr:country": "AT", "addr:housenumber": "20", "addr:postcode": "8010", "addr:street": "Zinzendorfgasse", "amenity": "cafe", "changing_table:fee": "no", "indoor_seating": "yes", "internet_access": "no", "kids_area": "no", "level": "0", "name": "Beanery Coffee", "opening_hours": "Mo-Fr 07:30-19:00; Sa 08:00-18:00; Su 09:00-18:00; PH 09:00-18:00", "outdoor_seating": "street", "payment:credit_cards": "yes", "payment:debit_cards": "yes", "smoking": "outside", "takeaway": "yes", "toilets:wheelchair": "no", "wheelchair": "no"}}, {"type": "node", "id": 454412014, "lat": 47.0753737, "lon": 15.446152, "tags": {"addr:city": "Graz", "addr:country": "AT", "addr:housenumber": "2", "addr:postcode": "8010", "addr:street": "Rittergasse", "amenity": "cafe", "contact:phone": "+43 316 325777", "drink:beer": "draught", "drink:beer:Budweiser": "draught", "drink:m\u00e4rzen:Puntigamer": "bottled", "drink:m\u00e4rzen:Stiegl": "bottled", "drink:pilsner:Murauer": "draught", "drink:weizen:Murauer": "yes", "internet_access": "wlan", "name": "Ritter", "old_name": "Glacis 25", "opening_hours": "Mo-Su 08:00-22:00", "smoking": "separated", "source": "https://grazer.at/achtnull/2022/05/18/fruehstuecks-himmel-im-neueroeffneten-cafe-ritter/", "website": "https://www.cafe-ritter.com/", "wheelchair": "limited"}}, {"type": "node", "id": 454470895, "lat": 47.0791717, "lon": 15.4475741, "tags": {"addr:city": "Graz", "addr:country": "AT", "addr:housenumber": "1", "addr:postcode": "8010", "addr:street": "Mozartgasse", "amenity": "cafe", "entrance": "yes", "name": "Bica", "name:de": "Kaffeesiederei Schrau\u00dfer", "name:en": "Kaffeesiederei Schrausser", "opening_hours": "Mo-Fr 08:00-20:00", "phone": "+43 676 9701902", "website": "https://www.facebook.com/KaffeesiedereiSchrausser"}}, {"type": "node", "id": 465223749, "lat": 47.0647653, "lon": 15.4367372, "tags": {"addr:city": "Graz", "addr:country": "AT", "addr:housenumber": "13", "addr:postcode": "8010", "addr:street": "Friedrichgasse", "amenity": "cafe", "name": "Hubert Auer", "opening_hours": "Mo-Fr 05:30-14:00", "phone": "+43 5 96 69 232", "smoking": "no", "website": "https://www.hubert-auer.at/", "wheelchair": "yes"}}, {"type": "node", "id": 465226993, "lat": 47.0699349, "lon": 15.4034753, "tags": {"addr:city": "Graz", "addr:country": "AT", "addr:floor": "1", "addr:housenumber": "3", "addr:postcode": "8020", "addr:street": "Gaswerkstra\u00dfe", "amenity": "fast_food", "check_date": "2022-08-23", "cuisine": "kebab", "name": "House of Kebab", "payment:contactless": "yes", "payment:credit_cards": "yes", "payment:debit_cards": "yes", "phone": "+43 676 9238383", "takeaway": "yes", "toilets:wheelchair": "no", "wheelchair": "limited"}}, {"type": "node", "id": 465228631, "lat": 47.0677848, "lon": 15.4007887, "tags": {"addr:city": "Graz", "addr:country": "AT", "addr:housenumber": "50", "addr:postcode": "8020", "addr:street": "Karl-Morre-Stra\u00dfe", "amenity": "pub", "name": "Weinstube J\u00e4ger"}}, {"type": "node", "id": 482375479, "lat": 47.0584212, "lon": 15.4600884, "tags": {"addr:city": "Graz", "addr:country": "AT", "addr:housenumber": "10", "addr:postcode": "8010", "addr:street": "Inffeldgasse", "amenity": "restaurant", "contact:phone": "+43 5 7405-802", "contact:website": "https://www.mensen.at/", "diet:vegan": "no", "diet:vegetarian": "yes", "full_name": "Mensa & M-Cafe Inffeldgasse", "indoor_seating": "yes", "level": "0", "name": "Mensa Inffeldgasse", "opening_hours": "Mo-Fr 07:00-15:00 open \"M-Cafe\"; Sa,Su,PH off || Mo-Fr 11:00-14:00 open \"Mittagessen\"; Sa,Su,PH off", "outdoor_seating": "yes", "smoking": "no", "smoking:outside": "yes", "toilets:wheelchair": "yes", "wheelchair": "yes"}}, {"type": "node", "id": 485613309, "lat": 47.0815858, "lon": 15.4339142, "tags": {"addr:city": "Graz", "addr:country": "AT", "addr:housenumber": "40", "addr:postcode": "8010", "addr:street": "Theodor-K\u00f6rner-Stra\u00dfe", "amenity": "restaurant", "contact:phone": "+43 316 688988", "cuisine": "chinese", "delivery": "yes", "name": "China Restaurant Imperium", "note": "same citchen as Wokano, but different name and business model and entrance", "opening_hours": "Mo-Su 11:00-15:00,17:00-23:00", "takeaway": "only", "wheelchair": "limited"}}, {"type": "node", "id": 508759950, "lat": 47.075256, "lon": 15.447417, "tags": {"addr:city": "Graz", "addr:country": "AT", "addr:housenumber": "10", "addr:postcode": "8010", "addr:street": "Zinzendorfgasse", "amenity": "restaurant", "contact:phone": "+43 676 545 01 09", "cuisine": "japanese;chinese", "indoor_seating": "yes", "level": "0", "name": "Noonbar", "old_name": "Tset tsen", "opening_hours": "Mo 11:30-23:00; Tu-Th 17:00-23:00; Fr, Sa 11:30-23:00; Su 11:30-21:00", "outdoor_seating": "yes", "smoking": "no", "website": "https://noonbar.at", "wheelchair": "limited"}}, {"type": "node", "id": 510122998, "lat": 47.0992715, "lon": 15.3918359, "tags": {"addr:city": "Graz", "addr:country": "AT", "addr:housenumber": "3", "addr:postcode": "8051", "addr:street": "Thalstra\u00dfe", "amenity": "restaurant", "name": "Gasthaus Kokol"}}, {"type": "node", "id": 560422291, "lat": 47.06187, "lon": 15.4721254}, {"type": "node", "id": 560422292, "lat": 47.0616592, "lon": 15.472408}, {"type": "node", "id": 560422294, "lat": 47.0618084, "lon": 15.4726563}, {"type": "node", "id": 560422295, "lat": 47.0618745, "lon": 15.4725852}, {"type": "node", "id": 560422298, "lat": 47.062017, "lon": 15.4724154}, {"type": "node", "id": 560422300, "lat": 47.0619502, "lon": 15.4722956}, {"type": "node", "id": 560424402, "lat": 47.0665267, "lon": 15.4693811, "tags": {"addr:city": "Graz", "addr:country": "AT", "addr:postcode": "8010", "addr:street": "Waltendorfer Hauptstra\u00dfe", "check_date": "2025-07-10", "contact:email": "willkommen@sofisch.at", "contact:mobile": "+43 660 4805807", "contact:website": "http://www.sofisch.com/", "level": "0", "name": "Sofisch", "opening_hours": "Sa 08:00-13:00; Tu 12:00-19:00; We-Fr 09:00-19:00", "operator": "G\u00fcnther Pichler", "shop": "seafood", "start_date": "2020-02-26", "wheelchair": "yes"}}, {"type": "node", "id": 560544124, "lat": 47.0759348, "lon": 15.4493425, "tags": {"addr:city": "Graz", "addr:country": "AT", "addr:housenumber": "25", "addr:postcode": "8010", "addr:street": "Zinzendorfgasse", "amenity": "cafe", "contact:email": "geeks-cafe@gmx.at", "contact:facebook": "https://www.facebook.com/geekscafegraz", "contact:phone": "+43 650 4541775", "contact:website": "http://www.geeks-cafe.at/", "name": "Geek\u2019s Caf\u00e9", "opening_hours": "Mo-Fr 08:00-22:00", "payment:cash": "yes", "smoking": "no", "wheelchair": "no"}}, {"type": "node", "id": 566703094, "lat": 47.0785836, "lon": 15.4508812, "tags": {"addr:city": "Graz", "addr:housenumber": "15", "addr:postcode": "8010", "addr:street": "Universit\u00e4tsstra\u00dfe", "amenity": "cafe", "diet:vegan": "only", "indoor_seating": "yes", "level": "1", "name": "KF Erde", "opening_hours": "Mo-Fr 08:00-15:00", "outdoor_seating": "no", "payment:credit_cards": "yes", "payment:debit_cards": "yes", "phone": "+433163805908", "website": "https://cafeerde.com/", "wheelchair": "yes"}}, {"type": "node", "id": 566804789, "lat": 47.0751324, "lon": 15.4470112, "tags": {"addr:city": "Graz", "addr:country": "AT", "addr:housenumber": "6", "addr:postcode": "8010", "addr:street": "Zinzendorfgasse", "amenity": "bar", "indoor_seating": "yes", "name": "drops", "opening_hours": "Tu-Sa 17:00-23:00+", "outdoor_seating": "yes", "phone": "+436603998897", "website": "https://www.drops.bar/", "wheelchair": "no"}}, {"type": "node", "id": 568816532, "lat": 47.0758102, "lon": 15.4455175, "tags": {"addr:city": "Graz", "addr:country": "AT", "addr:housenumber": "2", "addr:postcode": "8010", "addr:street": "Harrachgasse", "amenity": "restaurant", "contact:phone": "+43 676 6364469", "cuisine": "thai", "food": "yes", "microbrewery": "no", "name": "Pad Thai", "old_name": "B.eat", "opening_hours": "Mo-Fr 11:00-21:00; Sa,Su,PH off", "outdoor_seating": "backyard", "phone": "+43 680 248 1999", "smoking": "no", "smoking:outside": "yes", "source": "survey", "website": "http://www.padthai.at", "wheelchair": "no"}}, {"type": "node", "id": 570339808, "lat": 47.0715493, "lon": 15.4333334, "tags": {"amenity": "pub", "name": "The Running Horse", "smoking": "yes", "wheelchair": "limited"}}, {"type": "node", "id": 616791028, "lat": 47.0695308, "lon": 15.4388993, "tags": {"addr:city": "Graz", "addr:country": "AT", "addr:housenumber": "5", "addr:postcode": "8010", "addr:street": "Schmiedgasse", "amenity": "restaurant", "check_date": "2023-11-20", "contact:email": "office@welscherstubn.at", "contact:phone": "+43 316 83 41 45", "contact:website": "http://www.welscherstubn.at", "indoor_seating": "yes", "name": "Welscher Stub'n", "opening_hours": "Mo-Sa 10:00-24:00; Su,PH off", "opening_hours:kitchen": "Mo-Sa 11:00-22:30", "operator": "G. Leitner KG", "outdoor_seating": "yes", "smoking": "separated"}}, {"type": "node", "id": 616896682, "lat": 47.0711161, "lon": 15.441573, "tags": {"addr:city": "Graz", "addr:country": "AT", "addr:housenumber": "3", "addr:postcode": "8010", "addr:street": "Abraham-a-Santa-Clara-Gasse", "alt_name": "Steirerpub", "amenity": "pub", "check_date": "2023-07-18", "check_date:opening_hours": "2023-07-18", "name": "Steirer Pub", "opening_hours": "Tu-Sa 19:00+; Mo,Su,PH off", "phone": "+43 664 3120762", "source": "survey", "website": "Steirer-pub.at"}}, {"type": "node", "id": 616898598, "lat": 47.0717384, "lon": 15.438361, "tags": {"addr:city": "Graz", "addr:country": "AT", "addr:housenumber": "4", "addr:postcode": "8010", "addr:street": "Sporgasse", "amenity": "cafe", "check_date": "2025-05-05", "check_date:opening_hours": "2025-05-05", "contact:email": "office@sorgerbrot.at", "contact:phone": "+43 316 81 91 6021", "cuisine": "breakfast;cake;sandwich;regional", "diet:vegetarian": "yes", "food": "yes", "indoor_seating": "yes", "name": "Sorger", "name:zh": "\u559d\u4e0b\u5348\u8336\uff0c\u4e24\u5957\u751c\u70b9\u5496\u5561", "old_name": "Konditorei Strehly", "opening_hours": "Mo-Fr 07:00-19:00; Sa 08:00-19:00; Su 08:00-18:00", "outdoor_seating": "yes", "shop": "bakery", "smoking": "outside", "source": "survey", "takeaway": "yes", "website": "https://sorgerbrot.at/speisekarte/sporgasse/", "wheelchair": "limited"}}, {"type": "node", "id": 629028260, "lat": 47.0600408, "lon": 15.463938, "tags": {"addr:city": "Graz", "addr:country": "AT", "addr:housenumber": "118", "addr:postcode": "8010", "addr:street": "Petersgasse", "amenity": "fast_food", "diet:vegetarian": "yes", "indoor_seating": "no", "name": "Cafe Pail", "opening_hours": "Mo-Fr 06:00-21:00; Sa 08:00-20:00; Su,PH off", "outdoor_seating": "yes", "wheelchair": "limited"}}, {"type": "node", "id": 662159421, "lat": 47.0801713, "lon": 15.4509623, "tags": {"addr:city": "Graz", "addr:country": "AT", "addr:housenumber": "2", "addr:postcode": "8010", "addr:street": "Liebiggasse", "amenity": "restaurant", "contact:phone": "+43 316 381150", "cuisine": "regional", "internet_access": "wlan", "name": "Liebig", "opening_hours": "Tu-Fr 12:00-22:00; Sa 16:00-22:00; Su,Mo off", "website": "http://www.cafe-liebig.at/wp/", "wheelchair": "limited"}}, {"type": "node", "id": 691218641, "lat": 47.0715297, "lon": 15.4365017}, {"type": "node", "id": 704495434, "lat": 47.0753231, "lon": 15.458885, "tags": {"addr:city": "Graz", "addr:country": "AT", "addr:housenumber": "82", "addr:postcode": "8010", "addr:street": "Leonhardstra\u00dfe", "amenity": "cafe", "contact:phone": "+43 316 225699", "contact:website": "http://tribeka.at", "diet:vegan": "yes", "diet:vegetarian": "yes", "indoor_seating": "yes", "name": "tribeka", "opening_hours": "Mo-Fr 07:00-19:00; Sa 08:00-19:00; PH,Su 08:00-19:00", "outdoor_seating": "yes", "smoking": "no", "wheelchair": "no"}}, {"type": "node", "id": 759627874, "lat": 47.0700314, "lon": 15.4429536, "tags": {"addr:city": "Graz", "addr:country": "AT", "addr:housenumber": "13", "addr:postcode": "8010", "addr:street": "B\u00fcrgergasse", "amenity": "bar", "indoor_seating": "yes", "name": "Weinlokal \"Der Keller\"", "opening_hours": "Mo-Sa 08:00-22:00; Su 09:00-20:00", "outdoor_seating": "yes"}}, {"type": "node", "id": 788311947, "lat": 47.0878002, "lon": 15.4477228}, {"type": "node", "id": 815231372, "lat": 47.0566841, "lon": 15.3959943, "tags": {"addr:city": "Graz", "addr:country": "AT", "addr:housenumber": "5a", "addr:postcode": "8052", "addr:street": "Schererstra\u00dfe", "amenity": "cafe", "contact:email": "famoos.graz@lebenshilfen-sd.at", "contact:phone": "+43 316 58 59 92", "contact:website": "www.famoos.at", "cuisine": "coffee_shop", "name": "Famoos", "opening_hours": "Mo 12:00-19:00; Tu-Fr 08:00-19:00; Sa 09:00-19:00", "operator": "LebensGro\u00df GmbH", "wheelchair": "yes", "wheelchair:description": "Barrierefreies WC vorhanden"}}, {"type": "node", "id": 817549245, "lat": 47.073138, "lon": 15.4334386, "tags": {"addr:city": "Graz", "addr:country": "AT", "addr:housenumber": "20", "addr:postcode": "8020", "addr:street": "Mariahilferplatz", "amenity": "pub", "beer_garden": "yes", "check_date": "2023-04-15", "contact:email": "juergen.glaeser@a1.net", "contact:facebook": "https://de-de.facebook.com/thepubgraz", "contact:phone": "+43316773030", "cuisine": "mexican", "food": "yes", "level": "0", "name": "The Pub", "old_name": "Djs", "opening_hours": "Su,Mo 17:00-00:00; Tu-Sa 17:00-02:00", "outdoor_seating": "yes", "smoking": "no", "wheelchair": "no"}}, {"type": "node", "id": 826740237, "lat": 47.0606552, "lon": 15.4543222}, {"type": "node", "id": 826740263, "lat": 47.0603023, "lon": 15.4544498}, {"type": "node", "id": 826740322, "lat": 47.0603763, "lon": 15.4546895}, {"type": "node", "id": 826740348, "lat": 47.0607828, "lon": 15.4544189}, {"type": "node", "id": 826740393, "lat": 47.0602881, "lon": 15.4544041}, {"type": "node", "id": 826740448, "lat": 47.0606136, "lon": 15.4541874}, {"type": "node", "id": 827196666, "lat": 47.0603063, "lon": 15.454463, "tags": {"addr:city": "Graz", "addr:country": "AT", "addr:housenumber": "44", "addr:postcode": "8010", "addr:street": "Moserhofgasse", "entrance": "main", "wheelchair": "yes"}}, {"type": "node", "id": 827366633, "lat": 47.0603536, "lon": 15.454616}, {"type": "node", "id": 829053573, "lat": 47.0687939, "lon": 15.4391662, "tags": {"addr:city": "Graz", "addr:country": "AT", "addr:housenumber": "22", "addr:postcode": "8010", "addr:street": "Schmiedgasse", "amenity": "restaurant", "check_date:opening_hours": "2025-04-23", "contact:mobile": "+43 676 452 82 85", "contact:phone": "+43 316 81 26 27", "cuisine": "sushi;sashimi;ramen", "description": "closed until Jannuary 2019", "diet:vegetarian": "yes", "name": "Yamamoto", "opening_hours": "Mo-Sa 11:30-22:00", "opening_hours:kitchen": "Mo-Sa 11:45-14:00, 18:00-21:45", "operator": "Toshiaki Yamamoto", "outdoor_seating": "streetside", "source": "survey", "start_date": "2019-05-01", "wheelchair": "no"}}, {"type": "node", "id": 829114285, "lat": 47.0707833, "lon": 15.4343157, "tags": {"addr:city": "Graz", "addr:country": "AT", "addr:housenumber": "1", "addr:postcode": "8020", "addr:street": "S\u00fcdtiroler Platz", "addr:suburb": "Gries", "amenity": "restaurant", "check_date": "2025-05-14", "diet:vegan": "yes", "diet:vegetarian": "yes", "indoor_seating": "yes", "name": "Wiki Wiki Poke", "opening_hours": "Mo-Fr 11:00-21:00; Sa-Su 12:00-21:00; PH 12:00-21:00", "outdoor_seating": "no", "source": "survey", "takeaway": "yes", "wheelchair": "no"}}, {"type": "node", "id": 829114314, "lat": 47.0717299, "lon": 15.4246123, "tags": {"addr:city": "Graz", "addr:country": "AT", "addr:housename": "Hauseggerhof", "addr:housenumber": "3", "addr:postcode": "8020", "addr:street": "Hans-Resel-Gasse", "amenity": "restaurant", "check_date": "2022-08-24", "contact:website": "https://www.ceyloncurry.at", "cuisine": "sri_lankan", "diet:vegan": "yes", "level": "0", "name": "Ceylon Curry", "opening_hours": "Tu-Fr 11:00-15:00, 17:00-21:30; Sa-Su 11:00-21:30", "source": "survey", "toilets:wheelchair": "no", "wheelchair": "limited"}}, {"type": "node", "id": 830458540, "lat": 47.0593797, "lon": 15.4522697, "tags": {"addr:city": "Graz", "addr:country": "AT", "addr:housenumber": "91", "addr:postcode": "8010", "addr:street": "M\u00fcnzgrabenstra\u00dfe", "amenity": "cafe", "diet:vegetarian": "yes", "name": "Gustotheke", "opening_hours": "Mo-Sa 05:00-11:00", "payment:credit_cards": "no", "payment:debit_cards": "no", "phone": "+43 316 82 00 11", "source": "survey", "wheelchair": "no"}}, {"type": "node", "id": 830477196, "lat": 47.0592826, "lon": 15.4528648}, {"type": "node", "id": 830477209, "lat": 47.0594168, "lon": 15.4530046}, {"type": "node", "id": 830477212, "lat": 47.0593445, "lon": 15.4530552}, {"type": "node", "id": 830477220, "lat": 47.059386, "lon": 15.4529091, "tags": {"covered": "yes", "entrance": "yes", "lit": "yes", "source": "survey", "wheelchair": "yes"}}, {"type": "node", "id": 830477227, "lat": 47.0593551, "lon": 15.452814, "tags": {"source": "survey"}}, {"type": "node", "id": 841828276, "lat": 47.0450213, "lon": 15.4494016, "tags": {"addr:city": "Graz", "addr:country": "AT", "addr:housenumber": "99", "addr:postcode": "8041", "addr:street": "Kasernstra\u00dfe", "amenity": "fast_food", "check_date": "2022-11-13", "cuisine": "kebab", "diet:vegan": "no", "diet:vegetarian": "limited", "name": "Kaserne 99", "old_name": "Kent", "opening_hours": "Mo-Su 09:00-22:00", "phone": "+43316 42 26 68", "wheelchair": "yes"}}, {"type": "node", "id": 847359462, "lat": 47.0670721, "lon": 15.4424325, "tags": {"addr:city": "Graz", "addr:country": "AT", "addr:housenumber": "16", "addr:postcode": "8010", "addr:street": "Jakominiplatz", "amenity": "fast_food", "brand": "Burger King", "brand:wikidata": "Q177054", "brand:wikipedia": "en:Burger King", "contact:facebook": "https://www.facebook.com/BurgerKing.Oesterreich", "contact:instagram": "https://www.instagram.com/burgerkingaustria/", "contact:phone": "+43 676 3917785", "contact:website": "https://www.burgerking.at/", "cuisine": "burger", "diet:vegetarian": "yes", "internet_access": "wlan", "name": "Burger King", "old_name": "Kung Fu", "opening_hours": "Fr-Sa 10:00-24:00;Mo-Th,Su 10:00-23:00", "operator": "MFAT AdFund", "source": "survey", "takeaway": "yes", "wheelchair": "yes"}},